"Request","model","Lat","Long","boxid","sampleid","reachid","station","location","SampleDate","UID","SiteCode","MasterCode","state","rolled","SiteID2","NEAR_FID","NEAR_DIST","NEAR_X","NEAR_Y","POINT_X","POINT_Y","DOY","ELEV_SITE","NHDSLOPE","ECO3","ECO4","TMAXPT","TMAX_AVE","TMEAN_AVE","TMIN_AVE","RH_AVE","TMEANPT","MEANP_AVE","MAXP_AVE","MAXWD_AVE","FST32F_AVE","EVI_MAX_AVE","ELEV_MIN","ELEV_MEAN","DD_LAT_Y","SQ_KM","TMAX_PT","LOG_LT_PPT_PT","Sq_km","LOG_KM2","ELVmean_WS","ELVmin_WS","KFCT_WS","PMIN_WS","RH_WS","TMAX_WS","TMEAN_PT","TMEAN_WS","PMIN_PT","WSA_SQKM","ELVmax_WS","precip","temp","east","elev_sqrt","ELEV_WS","Lat_Dec","LOG_XP_PT","Long_Dec","PRCPSHORTWS","SQRT_TOPO","SUMMER","WINTER","ClimateE","MetricE","GRIDCODE","ShedAreakm","AreaHect","SprgNum_WS","MINEnum_WS","DAMnum_WS","DAMvol_WS","StreamDens","BLMPct","PrivPct","HydrAlt_km","RdDens","Urban_WS","AG_WS","Psum_PT","Psum_WS","AreaKM","daynum","FID","qc_site","EVI_MAX_AV","OBJECTID","Long_","sampdate","SlopeE","PRCPSHORTW","Priority_s","Bug_model","WQ_model","OLD_UID","Existing_w","Project","Rolled"
1,"UTDEQ15",38.3846016,-109.1719971,1847,157955,"BVR_CRK","BVR_CRK","Beaver Creek","10/27/2016",NA,NA,NA,"UT",NA,NA,NA,NA,NA,NA,NA,NA,NA,NA,NA,NA,NA,275,259.75,63.8330002,-103.6660004,52,76,613.9160156,74.5550003,8,265.5,5192.229981,2400.100098,2750.580078,38.3846016,10.9692001,NA,NA,NA,NA,NA,NA,NA,NA,NA,NA,NA,NA,NA,NA,NA,NA,NA,NA,NA,NA,NA,NA,NA,NA,NA,NA,NA,NA,NA,NA,NA,NA,NA,NA,NA,NA,NA,NA,NA,NA,NA,NA,NA,NA,NA,NA,NA,NA,NA,NA,NA,NA,NA,NA,NA,NA,NA,NA,NA,NA,NA,NA
1,"UTDEQ15",38.3636017,-109.2160034,1847,157956,"DEER_CRK","DEER_CRK","Deer Creek","10/27/2016",NA,NA,NA,"UT",NA,NA,NA,NA,NA,NA,NA,NA,NA,NA,NA,NA,NA,273,270,72,-97,52.5,75,484,64,7,269,4670.330078,2484.800049,2627.439941,38.3636017,1.1467201,NA,NA,NA,NA,NA,NA,NA,NA,NA,NA,NA,NA,NA,NA,NA,NA,NA,NA,NA,NA,NA,NA,NA,NA,NA,NA,NA,NA,NA,NA,NA,NA,NA,NA,NA,NA,NA,NA,NA,NA,NA,NA,NA,NA,NA,NA,NA,NA,NA,NA,NA,NA,NA,NA,NA,NA,NA,NA,NA,NA,NA,NA
1,"UTDEQ15",38.3848,-109.2089996,1847,157957,"LASAL_CRK","LASALCK-2","LaSal Creek, Site 2","10/27/2016",NA,NA,NA,"UT",NA,NA,NA,NA,NA,NA,NA,NA,NA,NA,NA,NA,NA,270,229.0549927,44.3880005,-111.7220001,52.0950012,73,794.0549927,91.8880005,8,266.6659851,5002.160156,2524.800049,3040.620117,38.3848,15.717,NA,NA,NA,NA,NA,NA,NA,NA,NA,NA,NA,NA,NA,NA,NA,NA,NA,NA,NA,NA,NA,NA,NA,NA,NA,NA,NA,NA,NA,NA,NA,NA,NA,NA,NA,NA,NA,NA,NA,NA,NA,NA,NA,NA,NA,NA,NA,NA,NA,NA,NA,NA,NA,NA,NA,NA,NA,NA,NA,NA,NA,NA
1,"UTDEQ15",38.3553009,-109.1200027,1847,157958,"2MILE_CRK","2MILE_CRK","2 Mile Creek","10/27/2016",NA,NA,NA,"UT",NA,NA,NA,NA,NA,NA,NA,NA,NA,NA,NA,NA,NA,289,267.1659851,68.0830002,-105.9160004,52,85,599.6110229,72.5169983,7.3330002,268.1659851,4717.669922,2154.399902,2600.949951,38.3553009,28.5489006,NA,NA,NA,NA,NA,NA,NA,NA,NA,NA,NA,NA,NA,NA,NA,NA,NA,NA,NA,NA,NA,NA,NA,NA,NA,NA,NA,NA,NA,NA,NA,NA,NA,NA,NA,NA,NA,NA,NA,NA,NA,NA,NA,NA,NA,NA,NA,NA,NA,NA,NA,NA,NA,NA,NA,NA,NA,NA,NA,NA,NA,NA
2,"CO_MMI",39.9497986,-106.5579987,1877,164284,"Radium","RADIUM01","Colorado River","10/16/2016",NA,NA,NA,"CO",NA,NA,NA,NA,NA,NA,NA,NA,0,2091,0.00107,21,"21d",NA,NA,NA,NA,NA,NA,NA,NA,NA,NA,NA,NA,NA,NA,NA,NA,NA,NA,NA,NA,NA,NA,NA,NA,NA,NA,NA,NA,NA,NA,NA,NA,NA,NA,NA,NA,NA,NA,NA,NA,NA,NA,NA,NA,NA,NA,NA,NA,NA,NA,NA,NA,NA,NA,NA,NA,NA,NA,NA,NA,NA,NA,NA,NA,NA,NA,NA,NA,NA,NA,NA,NA,NA,NA,NA,NA,NA
2,"CO_MMI",39.8577003,-106.6470032,1877,164285,"State Bridge","STATEBRIDGE01","Colorado River","10/16/2016",NA,NA,NA,"CO",NA,NA,NA,NA,NA,NA,NA,NA,0,2054,0.00354,21,"21d",NA,NA,NA,NA,NA,NA,NA,NA,NA,NA,NA,NA,NA,NA,NA,NA,NA,NA,NA,NA,NA,NA,NA,NA,NA,NA,NA,NA,NA,NA,NA,NA,NA,NA,NA,NA,NA,NA,NA,NA,NA,NA,NA,NA,NA,NA,NA,NA,NA,NA,NA,NA,NA,NA,NA,NA,NA,NA,NA,NA,NA,NA,NA,NA,NA,NA,NA,NA,NA,NA,NA,NA,NA,NA,NA,NA,NA
2,"CO_MMI",39.9123993,-106.7850037,1877,164286,"ABV Catamount","ABVCATAMOUNT01","Colorado River","10/16/2016",NA,NA,NA,"CO",NA,NA,NA,NA,NA,NA,NA,NA,0,2002,0,21,"21d",NA,NA,NA,NA,NA,NA,NA,NA,NA,NA,NA,NA,NA,NA,NA,NA,NA,NA,NA,NA,NA,NA,NA,NA,NA,NA,NA,NA,NA,NA,NA,NA,NA,NA,NA,NA,NA,NA,NA,NA,NA,NA,NA,NA,NA,NA,NA,NA,NA,NA,NA,NA,NA,NA,NA,NA,NA,NA,NA,NA,NA,NA,NA,NA,NA,NA,NA,NA,NA,NA,NA,NA,NA,NA,NA,NA,NA
2,"CO_MMI",39.7098999,-107.0469971,1877,164287,"BLW Red Dirt","BLWREDDIRT01","Colorado River","10/16/2016",NA,NA,NA,"CO",NA,NA,NA,NA,NA,NA,NA,NA,0,1915,0.00178,21,"21d",NA,NA,NA,NA,NA,NA,NA,NA,NA,NA,NA,NA,NA,NA,NA,NA,NA,NA,NA,NA,NA,NA,NA,NA,NA,NA,NA,NA,NA,NA,NA,NA,NA,NA,NA,NA,NA,NA,NA,NA,NA,NA,NA,NA,NA,NA,NA,NA,NA,NA,NA,NA,NA,NA,NA,NA,NA,NA,NA,NA,NA,NA,NA,NA,NA,NA,NA,NA,NA,NA,NA,NA,NA,NA,NA,NA,NA
2,"CO_MMI",39.9846992,-106.5139999,1919,164310,"COR-Pumphouse","COR-Pump","COR-Pumphouse","1/0/1900",NA,NA,NA,"CO",NA,NA,NA,NA,NA,NA,NA,NA,0,2118,0.00233,21,"21d",NA,NA,NA,NA,NA,NA,NA,NA,NA,NA,NA,NA,NA,NA,NA,NA,NA,NA,NA,NA,NA,NA,NA,NA,NA,NA,NA,NA,NA,NA,NA,NA,NA,NA,NA,NA,NA,NA,NA,NA,NA,NA,NA,NA,NA,NA,NA,NA,NA,NA,NA,NA,NA,NA,NA,NA,NA,NA,NA,NA,NA,NA,NA,NA,NA,NA,NA,NA,NA,NA,NA,NA,NA,NA,NA,NA,NA
3,"CO_MMI",38.691002,-105.505997,1852,164739,"FR-TR-001","FR-TR-001","Currant Creek","8/3/2016","928A9596-345E-4AF4-8178-3128A867299D",NA,NA,"CO",NA,NA,NA,NA,NA,NA,NA,NA,216,2428,0.018,21,"21c",NA,NA,NA,NA,NA,NA,NA,NA,NA,NA,NA,NA,NA,NA,NA,NA,NA,NA,NA,NA,NA,NA,NA,NA,NA,NA,NA,NA,NA,NA,NA,NA,NA,NA,NA,NA,NA,NA,NA,NA,NA,NA,NA,NA,NA,NA,NA,NA,NA,NA,NA,NA,NA,NA,NA,NA,NA,NA,NA,NA,NA,NA,NA,NA,NA,NA,NA,NA,NA,NA,NA,NA,NA,NA,NA,NA,NA
3,"CO_MMI",38.366901,-106.057999,1852,164740,"FR-TR-002","FR-TR-002","Alder Creek","6/23/2016","AD2C55EE-8A0D-42AA-9FEF-D9AE3ECFAEFA",NA,NA,"CO",NA,NA,NA,NA,NA,NA,NA,NA,174,2693,0.088,21,"21h",NA,NA,NA,NA,NA,NA,NA,NA,NA,NA,NA,NA,NA,NA,NA,NA,NA,NA,NA,NA,NA,NA,NA,NA,NA,NA,NA,NA,NA,NA,NA,NA,NA,NA,NA,NA,NA,NA,NA,NA,NA,NA,NA,NA,NA,NA,NA,NA,NA,NA,NA,NA,NA,NA,NA,NA,NA,NA,NA,NA,NA,NA,NA,NA,NA,NA,NA,NA,NA,NA,NA,NA,NA,NA,NA,NA,NA
3,"CO_MMI",37.8148,-106.297997,1852,164741,"FR-TR-003","FR-TR-003","La Garita Creek","7/25/2016","7637FB10-7F6F-4BF6-8F46-F6404CAEBA77",NA,NA,"CO",NA,NA,NA,NA,NA,NA,NA,NA,207,2422,0.015,22,"22a",NA,NA,NA,NA,NA,NA,NA,NA,NA,NA,NA,NA,NA,NA,NA,NA,NA,NA,NA,NA,NA,NA,NA,NA,NA,NA,NA,NA,NA,NA,NA,NA,NA,NA,NA,NA,NA,NA,NA,NA,NA,NA,NA,NA,NA,NA,NA,NA,NA,NA,NA,NA,NA,NA,NA,NA,NA,NA,NA,NA,NA,NA,NA,NA,NA,NA,NA,NA,NA,NA,NA,NA,NA,NA,NA,NA,NA
3,"CO_MMI",38.889,-105.533997,1852,164742,"FR-TR-004","FR-TR-004","Balm of Gilead","8/19/2016","385D4F60-22AB-4FC4-99E4-BFDDF6E69DC3",NA,NA,"CO",NA,NA,NA,NA,NA,NA,NA,NA,232,2723.5,0.073,21,"21j",NA,NA,NA,NA,NA,NA,NA,NA,NA,NA,NA,NA,NA,NA,NA,NA,NA,NA,NA,NA,NA,NA,NA,NA,NA,NA,NA,NA,NA,NA,NA,NA,NA,NA,NA,NA,NA,NA,NA,NA,NA,NA,NA,NA,NA,NA,NA,NA,NA,NA,NA,NA,NA,NA,NA,NA,NA,NA,NA,NA,NA,NA,NA,NA,NA,NA,NA,NA,NA,NA,NA,NA,NA,NA,NA,NA,NA
3,"CO_MMI",38.887501,-105.568001,1852,164743,"FR-TR-005","FR-TR-005","Pruden Creek","8/9/2016","FB7D15DE-47E0-417E-A7EC-8E4183E6070F",NA,NA,"CO",NA,NA,NA,NA,NA,NA,NA,NA,222,2784.9,0.065,21,"21j",NA,NA,NA,NA,NA,NA,NA,NA,NA,NA,NA,NA,NA,NA,NA,NA,NA,NA,NA,NA,NA,NA,NA,NA,NA,NA,NA,NA,NA,NA,NA,NA,NA,NA,NA,NA,NA,NA,NA,NA,NA,NA,NA,NA,NA,NA,NA,NA,NA,NA,NA,NA,NA,NA,NA,NA,NA,NA,NA,NA,NA,NA,NA,NA,NA,NA,NA,NA,NA,NA,NA,NA,NA,NA,NA,NA,NA
3,"CO_MMI",38.3717,-105.588997,1852,164744,"FR-TR-006","FR-TR-006","Texas Creek","8/4/2016","9F7E2D60-28AC-4EE2-9DF6-F8A515519C71",NA,NA,"CO",NA,NA,NA,NA,NA,NA,NA,NA,217,2025,0.026,21,"21d",NA,NA,NA,NA,NA,NA,NA,NA,NA,NA,NA,NA,NA,NA,NA,NA,NA,NA,NA,NA,NA,NA,NA,NA,NA,NA,NA,NA,NA,NA,NA,NA,NA,NA,NA,NA,NA,NA,NA,NA,NA,NA,NA,NA,NA,NA,NA,NA,NA,NA,NA,NA,NA,NA,NA,NA,NA,NA,NA,NA,NA,NA,NA,NA,NA,NA,NA,NA,NA,NA,NA,NA,NA,NA,NA,NA,NA
3,"CO_MMI",38.480099,-105.859001,1852,164745,"FR-TR-007","FR-TR-007","Badger Creek","8/5/2016","94E416AC-065C-4BA1-A67E-B527DE60D9A1",NA,NA,"CO",NA,NA,NA,NA,NA,NA,NA,NA,218,2107,0.025,21,"21d",NA,NA,NA,NA,NA,NA,NA,NA,NA,NA,NA,NA,NA,NA,NA,NA,NA,NA,NA,NA,NA,NA,NA,NA,NA,NA,NA,NA,NA,NA,NA,NA,NA,NA,NA,NA,NA,NA,NA,NA,NA,NA,NA,NA,NA,NA,NA,NA,NA,NA,NA,NA,NA,NA,NA,NA,NA,NA,NA,NA,NA,NA,NA,NA,NA,NA,NA,NA,NA,NA,NA,NA,NA,NA,NA,NA,NA
3,"CO_MMI",38.877499,-106.128998,1852,164746,"FR-TR-008","FR-TR-008","Fourmile Creek","8/6/2016","577F1B04-1638-444B-83B3-9B1E414B883F",NA,NA,"CO",NA,NA,NA,NA,NA,NA,NA,NA,219,2497,0.038,21,"21d",NA,NA,NA,NA,NA,NA,NA,NA,NA,NA,NA,NA,NA,NA,NA,NA,NA,NA,NA,NA,NA,NA,NA,NA,NA,NA,NA,NA,NA,NA,NA,NA,NA,NA,NA,NA,NA,NA,NA,NA,NA,NA,NA,NA,NA,NA,NA,NA,NA,NA,NA,NA,NA,NA,NA,NA,NA,NA,NA,NA,NA,NA,NA,NA,NA,NA,NA,NA,NA,NA,NA,NA,NA,NA,NA,NA,NA
3,"CO_MMI",39.299198,-106.208,1852,164747,"FR-TR-009","FR-TR-009","Birdseye Gulch","8/20/2016","8A04E087-BEDB-4A92-900B-B62DC747E54A",NA,NA,"CO",NA,NA,NA,NA,NA,NA,NA,NA,233,3299,0.081,21,"21e",NA,NA,NA,NA,NA,NA,NA,NA,NA,NA,NA,NA,NA,NA,NA,NA,NA,NA,NA,NA,NA,NA,NA,NA,NA,NA,NA,NA,NA,NA,NA,NA,NA,NA,NA,NA,NA,NA,NA,NA,NA,NA,NA,NA,NA,NA,NA,NA,NA,NA,NA,NA,NA,NA,NA,NA,NA,NA,NA,NA,NA,NA,NA,NA,NA,NA,NA,NA,NA,NA,NA,NA,NA,NA,NA,NA,NA
3,"CO_MMI",38.521,-106.164002,1852,164748,"FR-TR-010","FR-TR-010","Green Creek","8/7/2016","CDAD1829-A31F-490D-AADC-DA2F10F87B27",NA,NA,"CO",NA,NA,NA,NA,NA,NA,NA,NA,220,2470,0.046,21,"21d",NA,NA,NA,NA,NA,NA,NA,NA,NA,NA,NA,NA,NA,NA,NA,NA,NA,NA,NA,NA,NA,NA,NA,NA,NA,NA,NA,NA,NA,NA,NA,NA,NA,NA,NA,NA,NA,NA,NA,NA,NA,NA,NA,NA,NA,NA,NA,NA,NA,NA,NA,NA,NA,NA,NA,NA,NA,NA,NA,NA,NA,NA,NA,NA,NA,NA,NA,NA,NA,NA,NA,NA,NA,NA,NA,NA,NA
3,"CO_MMI",38.656799,-105.815002,1852,164749,"FR-TR-012","FR-TR-012","Badger Creek","8/24/2016","E51D5B9F-3665-475B-95A8-10CBFEDA2C21",NA,NA,"CO",NA,NA,NA,NA,NA,NA,NA,NA,237,2693,0.023,21,"21f",NA,NA,NA,NA,NA,NA,NA,NA,NA,NA,NA,NA,NA,NA,NA,NA,NA,NA,NA,NA,NA,NA,NA,NA,NA,NA,NA,NA,NA,NA,NA,NA,NA,NA,NA,NA,NA,NA,NA,NA,NA,NA,NA,NA,NA,NA,NA,NA,NA,NA,NA,NA,NA,NA,NA,NA,NA,NA,NA,NA,NA,NA,NA,NA,NA,NA,NA,NA,NA,NA,NA,NA,NA,NA,NA,NA,NA
3,"CO_MMI",38.336498,-105.962997,1852,164750,"FR-TR-013","FR-TR-013","Eagle Creek","9/13/2016","A2116FEE-0E61-4D0D-9C96-403CD6953031",NA,NA,"CO",NA,NA,NA,NA,NA,NA,NA,NA,256,2570,0.135,22,"22a",NA,NA,NA,NA,NA,NA,NA,NA,NA,NA,NA,NA,NA,NA,NA,NA,NA,NA,NA,NA,NA,NA,NA,NA,NA,NA,NA,NA,NA,NA,NA,NA,NA,NA,NA,NA,NA,NA,NA,NA,NA,NA,NA,NA,NA,NA,NA,NA,NA,NA,NA,NA,NA,NA,NA,NA,NA,NA,NA,NA,NA,NA,NA,NA,NA,NA,NA,NA,NA,NA,NA,NA,NA,NA,NA,NA,NA
3,"CO_MMI",38.349899,-105.981003,1852,164751,"FR-TR-014","FR-TR-014","Nieland Creek","9/14/2016","9E13E1D6-C894-4463-BFD1-64E72CB061D4",NA,NA,"CO",NA,NA,NA,NA,NA,NA,NA,NA,257,2586,0.165,22,"22a",NA,NA,NA,NA,NA,NA,NA,NA,NA,NA,NA,NA,NA,NA,NA,NA,NA,NA,NA,NA,NA,NA,NA,NA,NA,NA,NA,NA,NA,NA,NA,NA,NA,NA,NA,NA,NA,NA,NA,NA,NA,NA,NA,NA,NA,NA,NA,NA,NA,NA,NA,NA,NA,NA,NA,NA,NA,NA,NA,NA,NA,NA,NA,NA,NA,NA,NA,NA,NA,NA,NA,NA,NA,NA,NA,NA,NA
3,"CO_MMI",38.355099,-105.991997,1852,164752,"FR-TR-015","FR-TR-015","Rock Creek","9/16/2016","214837C7-4368-4287-B04E-665683AA0688",NA,NA,"CO",NA,NA,NA,NA,NA,NA,NA,NA,259,2587,0.046,22,"22a",NA,NA,NA,NA,NA,NA,NA,NA,NA,NA,NA,NA,NA,NA,NA,NA,NA,NA,NA,NA,NA,NA,NA,NA,NA,NA,NA,NA,NA,NA,NA,NA,NA,NA,NA,NA,NA,NA,NA,NA,NA,NA,NA,NA,NA,NA,NA,NA,NA,NA,NA,NA,NA,NA,NA,NA,NA,NA,NA,NA,NA,NA,NA,NA,NA,NA,NA,NA,NA,NA,NA,NA,NA,NA,NA,NA,NA
3,"CO_MMI",38.711399,-105.269997,1852,164753,"FR-TR-016","FR-TR-016","Little High Creek","8/22/2016","79AE71B8-95AB-4A6D-B53E-4DC56F0DEADF",NA,NA,"CO",NA,NA,NA,NA,NA,NA,NA,NA,235,2333,0,21,"21d",NA,NA,NA,NA,NA,NA,NA,NA,NA,NA,NA,NA,NA,NA,NA,NA,NA,NA,NA,NA,NA,NA,NA,NA,NA,NA,NA,NA,NA,NA,NA,NA,NA,NA,NA,NA,NA,NA,NA,NA,NA,NA,NA,NA,NA,NA,NA,NA,NA,NA,NA,NA,NA,NA,NA,NA,NA,NA,NA,NA,NA,NA,NA,NA,NA,NA,NA,NA,NA,NA,NA,NA,NA,NA,NA,NA,NA
3,"CO_MMI",40.082001,-106.397003,1852,164754,"NW-TR-001","NW-TR-001","Muddy Creek","8/3/2016","0F7AE5A2-7C52-41D2-921B-CC1B849FC371",NA,NA,"CO",NA,NA,NA,NA,NA,NA,NA,NA,216,2234,0,21,"21i",NA,NA,NA,NA,NA,NA,NA,NA,NA,NA,NA,NA,NA,NA,NA,NA,NA,NA,NA,NA,NA,NA,NA,NA,NA,NA,NA,NA,NA,NA,NA,NA,NA,NA,NA,NA,NA,NA,NA,NA,NA,NA,NA,NA,NA,NA,NA,NA,NA,NA,NA,NA,NA,NA,NA,NA,NA,NA,NA,NA,NA,NA,NA,NA,NA,NA,NA,NA,NA,NA,NA,NA,NA,NA,NA,NA,NA
3,"CO_MMI",40.9291,-106.012001,1852,164755,"NW-TR-002","NW-TR-002","Grace Creek","8/7/2016","170FCED6-DE4E-4EAE-A0DC-84D22FC3AEB5",NA,NA,"CO",NA,NA,NA,NA,NA,NA,NA,NA,220,2416.5,0.026,18,"18f",NA,NA,NA,NA,NA,NA,NA,NA,NA,NA,NA,NA,NA,NA,NA,NA,NA,NA,NA,NA,NA,NA,NA,NA,NA,NA,NA,NA,NA,NA,NA,NA,NA,NA,NA,NA,NA,NA,NA,NA,NA,NA,NA,NA,NA,NA,NA,NA,NA,NA,NA,NA,NA,NA,NA,NA,NA,NA,NA,NA,NA,NA,NA,NA,NA,NA,NA,NA,NA,NA,NA,NA,NA,NA,NA,NA,NA
3,"CO_MMI",40.613701,-106.185997,1852,164756,"NW-TR-003","NW-TR-003","Spring Creek","8/8/2016","FF4FDB01-D977-417C-8D65-D379A177D0EB",NA,NA,"CO",NA,NA,NA,NA,NA,NA,NA,NA,221,2520.5,0.005,21,"21i",NA,NA,NA,NA,NA,NA,NA,NA,NA,NA,NA,NA,NA,NA,NA,NA,NA,NA,NA,NA,NA,NA,NA,NA,NA,NA,NA,NA,NA,NA,NA,NA,NA,NA,NA,NA,NA,NA,NA,NA,NA,NA,NA,NA,NA,NA,NA,NA,NA,NA,NA,NA,NA,NA,NA,NA,NA,NA,NA,NA,NA,NA,NA,NA,NA,NA,NA,NA,NA,NA,NA,NA,NA,NA,NA,NA,NA
3,"CO_MMI",38.7342,-107.815002,1852,164757,"SW-TR-002","SmithGunnCO","Smith Fork of the Gunnison River","8/17/2016","E37E0DDE-03A2-4269-AB67-CFF34382AD3A",NA,NA,"CO",NA,NA,NA,NA,NA,NA,NA,NA,230,1658,0.034,20,"20c",NA,NA,NA,NA,NA,NA,NA,NA,NA,NA,NA,NA,NA,NA,NA,NA,NA,NA,NA,NA,NA,NA,NA,NA,NA,NA,NA,NA,NA,NA,NA,NA,NA,NA,NA,NA,NA,NA,NA,NA,NA,NA,NA,NA,NA,NA,NA,NA,NA,NA,NA,NA,NA,NA,NA,NA,NA,NA,NA,NA,NA,NA,NA,NA,NA,NA,NA,NA,NA,NA,NA,NA,NA,NA,NA,NA,NA
5,"UTDEQ15",38.7467995,-110.1460037,1901,164635,"SANRAFMWRIF","SANRAFMW","San Rafael River","10/5/2015",NA,NA,NA,"UT",NA,NA,NA,NA,NA,NA,NA,NA,NA,NA,NA,NA,NA,361,299.6900024,82.5139999,-107.3649979,51.4350014,118,325.7539978,38.5390015,6.3720002,271.5859985,1995.380005,1227.5,1954.459961,38.7467995,6246.490234,NA,NA,NA,NA,NA,NA,NA,NA,NA,NA,NA,NA,NA,NA,NA,NA,NA,NA,NA,NA,NA,NA,NA,NA,NA,NA,NA,NA,NA,NA,NA,NA,NA,NA,NA,NA,NA,NA,NA,NA,NA,NA,NA,NA,NA,NA,NA,NA,NA,NA,NA,NA,NA,NA,NA,NA,NA,NA,NA,NA,NA,NA
6,"OR_WCCP",42.8362999,-123.5049973,1908,164253,"M7.9","M7.9","Middle Creek","6/14/2017",NA,NA,NA,"OR",NA,NA,NA,NA,NA,NA,NA,NA,NA,NA,NA,NA,NA,NA,NA,NA,NA,NA,NA,NA,NA,NA,NA,NA,NA,NA,NA,NA,NA,NA,NA,NA,NA,NA,NA,NA,NA,NA,NA,NA,NA,NA,NA,1194,161,0,20.54263858,NA,NA,NA,NA,NA,NA,NA,NA,NA,NA,NA,NA,NA,NA,NA,NA,NA,NA,NA,NA,NA,NA,NA,NA,NA,NA,NA,NA,NA,NA,NA,NA,NA,NA,NA,NA,NA,NA,NA,NA,NA,NA,NA
6,"OR_WCCP",42.8336983,-123.4120026,1908,164254,"SF7.0","SF3.0","South Fork Middle Creek","6/13/2017",NA,NA,NA,"OR",NA,NA,NA,NA,NA,NA,NA,NA,NA,NA,NA,NA,NA,NA,NA,NA,NA,NA,NA,NA,NA,NA,NA,NA,NA,NA,NA,NA,NA,NA,NA,NA,NA,NA,NA,NA,NA,NA,NA,NA,NA,NA,NA,1448,160,0,23.89560629,NA,NA,NA,NA,NA,NA,NA,NA,NA,NA,NA,NA,NA,NA,NA,NA,NA,NA,NA,NA,NA,NA,NA,NA,NA,NA,NA,NA,NA,NA,NA,NA,NA,NA,NA,NA,NA,NA,NA,NA,NA,NA,NA
6,"OR_WCCP",42.8624001,-123.435997,1908,164255,"Brush Creek REF","BRUSH_REF","Brush Creek","6/14/2017",NA,NA,NA,"OR",NA,NA,NA,NA,NA,NA,NA,NA,NA,NA,NA,NA,NA,NA,NA,NA,NA,NA,NA,NA,NA,NA,NA,NA,NA,NA,NA,NA,NA,NA,NA,NA,NA,NA,NA,NA,NA,NA,NA,NA,NA,NA,NA,1448,166,0,23.85372088,NA,NA,NA,NA,NA,NA,NA,NA,NA,NA,NA,NA,NA,NA,NA,NA,NA,NA,NA,NA,NA,NA,NA,NA,NA,NA,NA,NA,NA,NA,NA,NA,NA,NA,NA,NA,NA,NA,NA,NA,NA,NA,NA
6,"OR_WCCP",42.8473015,-123.4369965,1908,164256,"M3.1","M3.1","Middle Creek","6/14/2017",NA,NA,NA,"OR",NA,NA,NA,NA,NA,NA,NA,NA,NA,NA,NA,NA,NA,NA,NA,NA,NA,NA,NA,NA,NA,NA,NA,NA,NA,NA,NA,NA,NA,NA,NA,NA,NA,NA,NA,NA,NA,NA,NA,NA,NA,NA,NA,1397,160,0,22.22611077,NA,NA,NA,NA,NA,NA,NA,NA,NA,NA,NA,NA,NA,NA,NA,NA,NA,NA,NA,NA,NA,NA,NA,NA,NA,NA,NA,NA,NA,NA,NA,NA,NA,NA,NA,NA,NA,NA,NA,NA,NA,NA,NA
6,"OR_WCCP",42.8469009,-123.4339981,1908,164257,"M3.0","M3.0_1","Middle Creek","6/14/2017",NA,NA,NA,"OR",NA,NA,NA,NA,NA,NA,NA,NA,NA,NA,NA,NA,NA,NA,NA,NA,NA,NA,NA,NA,NA,NA,NA,NA,NA,NA,NA,NA,NA,NA,NA,NA,NA,NA,NA,NA,NA,NA,NA,NA,NA,NA,NA,1397,160,0,22.22611077,NA,NA,NA,NA,NA,NA,NA,NA,NA,NA,NA,NA,NA,NA,NA,NA,NA,NA,NA,NA,NA,NA,NA,NA,NA,NA,NA,NA,NA,NA,NA,NA,NA,NA,NA,NA,NA,NA,NA,NA,NA,NA,NA
6,"OR_WCCP",42.8549995,-123.3960037,1908,164258,"MXR","MXR-downstream","Middle Creek","6/13/2017",NA,NA,NA,"OR",NA,NA,NA,NA,NA,NA,NA,NA,NA,NA,NA,NA,NA,NA,NA,NA,NA,NA,NA,NA,NA,NA,NA,NA,NA,NA,NA,NA,NA,NA,NA,NA,NA,NA,NA,NA,NA,NA,NA,NA,NA,NA,NA,1448,168,0,25.3179778,NA,NA,NA,NA,NA,NA,NA,NA,NA,NA,NA,NA,NA,NA,NA,NA,NA,NA,NA,NA,NA,NA,NA,NA,NA,NA,NA,NA,NA,NA,NA,NA,NA,NA,NA,NA,NA,NA,NA,NA,NA,NA,NA
6,"OR_WCCP",42.8535995,-123.4169998,1908,164259,"M2.0","MIDCRMID","Middle Creek","6/13/2017",NA,NA,NA,"OR",NA,NA,NA,NA,NA,NA,NA,NA,NA,NA,NA,NA,NA,NA,NA,NA,NA,NA,NA,NA,NA,NA,NA,NA,NA,NA,NA,NA,NA,NA,NA,NA,NA,NA,NA,NA,NA,NA,NA,NA,NA,NA,NA,1397,166,0,23.13006701,NA,NA,NA,NA,NA,NA,NA,NA,NA,NA,NA,NA,NA,NA,NA,NA,NA,NA,NA,NA,NA,NA,NA,NA,NA,NA,NA,NA,NA,NA,NA,NA,NA,NA,NA,NA,NA,NA,NA,NA,NA,NA,NA
6,"OR_WCCP",42.8368988,-123.3809967,1908,164260,"SF1.0","SF1.0","South Fork Middle Creek","6/13/2017",NA,NA,NA,"OR",NA,NA,NA,NA,NA,NA,NA,NA,NA,NA,NA,NA,NA,NA,NA,NA,NA,NA,NA,NA,NA,NA,NA,NA,NA,NA,NA,NA,NA,NA,NA,NA,NA,NA,NA,NA,NA,NA,NA,NA,NA,NA,NA,1499,162,0,26.2488095,NA,NA,NA,NA,NA,NA,NA,NA,NA,NA,NA,NA,NA,NA,NA,NA,NA,NA,NA,NA,NA,NA,NA,NA,NA,NA,NA,NA,NA,NA,NA,NA,NA,NA,NA,NA,NA,NA,NA,NA,NA,NA,NA
6,"OR_WCCP",42.8400993,-123.3799973,1908,164261,"SF0.7","SF 0.7","South Fork Middle Creek","6/13/2017",NA,NA,NA,"OR",NA,NA,NA,NA,NA,NA,NA,NA,NA,NA,NA,NA,NA,NA,NA,NA,NA,NA,NA,NA,NA,NA,NA,NA,NA,NA,NA,NA,NA,NA,NA,NA,NA,NA,NA,NA,NA,NA,NA,NA,NA,NA,NA,1499,162,0,26.64582519,NA,NA,NA,NA,NA,NA,NA,NA,NA,NA,NA,NA,NA,NA,NA,NA,NA,NA,NA,NA,NA,NA,NA,NA,NA,NA,NA,NA,NA,NA,NA,NA,NA,NA,NA,NA,NA,NA,NA,NA,NA,NA,NA
6,"OR_WCCP",42.8272018,-123.4889984,1908,164262,"Martin Creek REF","Martin Creek Ref","Martin Creek","6/14/2017",NA,NA,NA,"OR",NA,NA,NA,NA,NA,NA,NA,NA,NA,NA,NA,NA,NA,NA,NA,NA,NA,NA,NA,NA,NA,NA,NA,NA,NA,NA,NA,NA,NA,NA,NA,NA,NA,NA,NA,NA,NA,NA,NA,NA,NA,NA,NA,1245,161,0,21.49418526,NA,NA,NA,NA,NA,NA,NA,NA,NA,NA,NA,NA,NA,NA,NA,NA,NA,NA,NA,NA,NA,NA,NA,NA,NA,NA,NA,NA,NA,NA,NA,NA,NA,NA,NA,NA,NA,NA,NA,NA,NA,NA,NA
6,"OR_WCCP",42.8316994,-123.3730011,1908,164263,"SFREFB","SFREF1","South Fk Middle Creek Ref (Trib)","6/13/2017",NA,NA,NA,"OR",NA,NA,NA,NA,NA,NA,NA,NA,NA,NA,NA,NA,NA,NA,NA,NA,NA,NA,NA,NA,NA,NA,NA,NA,NA,NA,NA,NA,NA,NA,NA,NA,NA,NA,NA,NA,NA,NA,NA,NA,NA,NA,NA,1499,162,0,27,NA,NA,NA,NA,NA,NA,NA,NA,NA,NA,NA,NA,NA,NA,NA,NA,NA,NA,NA,NA,NA,NA,NA,NA,NA,NA,NA,NA,NA,NA,NA,NA,NA,NA,NA,NA,NA,NA,NA,NA,NA,NA,NA
6,"OR_WCCP",42.8560982,-123.4049988,1908,164264,"M1.2","MIDBEN","Middle Bench","6/13/2017",NA,NA,NA,"OR",NA,NA,NA,NA,NA,NA,NA,NA,NA,NA,NA,NA,NA,NA,NA,NA,NA,NA,NA,NA,NA,NA,NA,NA,NA,NA,NA,NA,NA,NA,NA,NA,NA,NA,NA,NA,NA,NA,NA,NA,NA,NA,NA,1397,168,0,24.04163056,NA,NA,NA,NA,NA,NA,NA,NA,NA,NA,NA,NA,NA,NA,NA,NA,NA,NA,NA,NA,NA,NA,NA,NA,NA,NA,NA,NA,NA,NA,NA,NA,NA,NA,NA,NA,NA,NA,NA,NA,NA,NA,NA
7,"UTDEQ15",40.483799,-111.6399994,1912,164962,"NULL","AboveBridge","North Fork American Fork","9/22/2017",NA,NA,NA,"UT",NA,NA,NA,NA,NA,NA,NA,NA,NA,NA,NA,NA,NA,264,226.1589966,38.2970009,-108.6800003,52.8580017,59,1017.479981,128.1829987,11.6000004,257,4626.229981,1943.699951,2655.620117,40.483799,77.9644012,NA,NA,NA,NA,NA,NA,NA,NA,NA,NA,NA,NA,NA,NA,NA,NA,NA,NA,NA,NA,NA,NA,NA,NA,NA,NA,NA,NA,NA,NA,NA,NA,NA,NA,NA,NA,NA,NA,NA,NA,NA,NA,NA,NA,NA,NA,NA,NA,NA,NA,NA,NA,NA,NA,NA,NA,NA,NA,NA,NA,NA,NA
7,"UTDEQ15",40.4791985,-111.6470032,1912,164963,"NULL","MileRock","North Fork American Fork","9/22/2017",NA,NA,NA,"UT",NA,NA,NA,NA,NA,NA,NA,NA,NA,NA,NA,NA,NA,253,229.0749969,39.8400002,-107.7470016,52.1269989,53,987.5880127,122.0329971,11.25,259.3999939,4699.660156,1920.800049,2622.689941,40.4791985,96.4182968,NA,NA,NA,NA,NA,NA,NA,NA,NA,NA,NA,NA,NA,NA,NA,NA,NA,NA,NA,NA,NA,NA,NA,NA,NA,NA,NA,NA,NA,NA,NA,NA,NA,NA,NA,NA,NA,NA,NA,NA,NA,NA,NA,NA,NA,NA,NA,NA,NA,NA,NA,NA,NA,NA,NA,NA,NA,NA,NA,NA,NA,NA
7,"UTDEQ15",40.4552002,-111.6610031,1912,164964,"NULL","Confluence","North Fork American Fork","9/22/2017",NA,NA,NA,"UT",NA,NA,NA,NA,NA,NA,NA,NA,NA,NA,NA,NA,NA,270,230.6719971,40.7360001,-107.2320023,52.0019989,64,975.4320068,120.1169968,11.2379999,259.6659851,4649.979981,1852.900024,2602.370117,40.4552002,102.2539978,NA,NA,NA,NA,NA,NA,NA,NA,NA,NA,NA,NA,NA,NA,NA,NA,NA,NA,NA,NA,NA,NA,NA,NA,NA,NA,NA,NA,NA,NA,NA,NA,NA,NA,NA,NA,NA,NA,NA,NA,NA,NA,NA,NA,NA,NA,NA,NA,NA,NA,NA,NA,NA,NA,NA,NA,NA,NA,NA,NA,NA,NA
7,"UTDEQ15",40.4439011,-111.7070007,1912,164965," ","VisitorCtr","North Fork American Fork","9/22/2017",NA,NA,NA,"UT",NA,NA,NA,NA,NA,NA,NA,NA,NA,NA,NA,NA,NA,270,232.875,42.5960007,-105.6419983,51.6640015,63,928.8690186,116.5899963,11.2799997,262.3999939,4643.529785,1713.099976,2564.080078,40.4439011,144.9429932,NA,NA,NA,NA,NA,NA,NA,NA,NA,NA,NA,NA,NA,NA,NA,NA,NA,NA,NA,NA,NA,NA,NA,NA,NA,NA,NA,NA,NA,NA,NA,NA,NA,NA,NA,NA,NA,NA,NA,NA,NA,NA,NA,NA,NA,NA,NA,NA,NA,NA,NA,NA,NA,NA,NA,NA,NA,NA,NA,NA,NA,NA
7,"UTDEQ15",40.4323997,-111.7509995,1912,164966,"NULL","Mouth","North Fork American Fork","9/22/2017",NA,NA,NA,"UT",NA,NA,NA,NA,NA,NA,NA,NA,NA,NA,NA,NA,NA,310,235.470993,44.2820015,-104.6800003,51.6629982,91,914.2189941,113.7600021,11.2659998,261.9330139,4534.080078,1534,2533.840088,40.4323997,155.9980011,NA,NA,NA,NA,NA,NA,NA,NA,NA,NA,NA,NA,NA,NA,NA,NA,NA,NA,NA,NA,NA,NA,NA,NA,NA,NA,NA,NA,NA,NA,NA,NA,NA,NA,NA,NA,NA,NA,NA,NA,NA,NA,NA,NA,NA,NA,NA,NA,NA,NA,NA,NA,NA,NA,NA,NA,NA,NA,NA,NA,NA,NA
7,"UTDEQ15",40.4444008,-111.6399994,1912,164967,"NULL","AboveDell","North Fork American Fork","9/22/2017",NA,NA,NA,"UT",NA,NA,NA,NA,NA,NA,NA,NA,NA,NA,NA,NA,NA,250,211.1049957,34.2630005,-107.8939972,50.7840004,56,1046.310059,128.4149933,11.5,261.5,4571.419922,2022.099976,2676.870117,40.4444008,15.4563999,NA,NA,NA,NA,NA,NA,NA,NA,NA,NA,NA,NA,NA,NA,NA,NA,NA,NA,NA,NA,NA,NA,NA,NA,NA,NA,NA,NA,NA,NA,NA,NA,NA,NA,NA,NA,NA,NA,NA,NA,NA,NA,NA,NA,NA,NA,NA,NA,NA,NA,NA,NA,NA,NA,NA,NA,NA,NA,NA,NA,NA,NA
7,"UTDEQ15",40.4477005,-111.6809998,1912,164968,"NULL","StrmGage","North Fork American Fork","9/22/2017",NA,NA,NA,"UT",NA,NA,NA,NA,NA,NA,NA,NA,NA,NA,NA,NA,NA,258,230.6999969,41.4560013,-106.4680023,51.6860008,56,950.0620117,119.5800018,11.3920002,260.8210144,4702.910156,1809.900024,2579.879883,40.4477005,132.423996,NA,NA,NA,NA,NA,NA,NA,NA,NA,NA,NA,NA,NA,NA,NA,NA,NA,NA,NA,NA,NA,NA,NA,NA,NA,NA,NA,NA,NA,NA,NA,NA,NA,NA,NA,NA,NA,NA,NA,NA,NA,NA,NA,NA,NA,NA,NA,NA,NA,NA,NA,NA,NA,NA,NA,NA,NA,NA,NA,NA,NA,NA
8,"CO_MMI",37.981098,-107.560997,1852,164758,"SW-TR-003","PALM-07","Palmetto Gulch upstream from Thoreau Cabin","8/23/2016","ED3C60B5-F5B2-41ED-93CE-B0AD288C909A",NA,NA,"CO",NA,NA,NA,NA,NA,NA,NA,NA,236,3509,0,21,"21a",NA,NA,NA,NA,NA,NA,NA,NA,NA,NA,NA,NA,NA,NA,NA,NA,NA,NA,NA,NA,NA,NA,NA,NA,NA,NA,NA,NA,NA,NA,NA,NA,NA,NA,NA,NA,NA,NA,NA,NA,NA,NA,NA,NA,NA,NA,NA,NA,NA,NA,NA,NA,NA,NA,NA,NA,NA,NA,NA,NA,NA,NA,NA,NA,NA,NA,NA,NA,NA,NA,NA,NA,NA,NA,NA,NA,NA
8,"CO_MMI",38.4963,-107.031998,1914,166974,"3.83E+14","3.83E+14","Beaver Creek","8/17/2017",NA,NA,NA,"CO",NA,NA,NA,NA,NA,NA,NA,NA,230,2306,0.024,21,"21i",NA,NA,NA,NA,NA,NA,NA,NA,NA,NA,NA,NA,NA,NA,NA,NA,NA,NA,NA,NA,NA,NA,NA,NA,NA,NA,NA,NA,NA,NA,NA,NA,NA,NA,NA,NA,NA,NA,NA,NA,NA,NA,NA,NA,NA,NA,NA,NA,NA,NA,NA,NA,NA,NA,NA,NA,NA,NA,NA,NA,NA,NA,NA,NA,NA,NA,NA,NA,NA,NA,NA,NA,NA,NA,NA,NA,NA
8,"CO_MMI",38.4058,-107.407997,1914,166975,"3.82E+14","3.82E+14","Blue Creek","8/8/2017",NA,NA,NA,"CO",NA,NA,NA,NA,NA,NA,NA,NA,221,2511,0.053,21,"21f",NA,NA,NA,NA,NA,NA,NA,NA,NA,NA,NA,NA,NA,NA,NA,NA,NA,NA,NA,NA,NA,NA,NA,NA,NA,NA,NA,NA,NA,NA,NA,NA,NA,NA,NA,NA,NA,NA,NA,NA,NA,NA,NA,NA,NA,NA,NA,NA,NA,NA,NA,NA,NA,NA,NA,NA,NA,NA,NA,NA,NA,NA,NA,NA,NA,NA,NA,NA,NA,NA,NA,NA,NA,NA,NA,NA,NA
8,"CO_MMI",38.425301,-107.176003,1914,166976,"3.82E+14","3.82E+14","Cebolla Creek","9/5/2017",NA,NA,NA,"CO",NA,NA,NA,NA,NA,NA,NA,NA,248,2301,0,21,"21h",NA,NA,NA,NA,NA,NA,NA,NA,NA,NA,NA,NA,NA,NA,NA,NA,NA,NA,NA,NA,NA,NA,NA,NA,NA,NA,NA,NA,NA,NA,NA,NA,NA,NA,NA,NA,NA,NA,NA,NA,NA,NA,NA,NA,NA,NA,NA,NA,NA,NA,NA,NA,NA,NA,NA,NA,NA,NA,NA,NA,NA,NA,NA,NA,NA,NA,NA,NA,NA,NA,NA,NA,NA,NA,NA,NA,NA
8,"CO_MMI",38.445702,-107.556,1914,166977,"9127000","CIMCPG-1","Cimarron Campground Spring","8/3/2017",NA,NA,NA,"CO",NA,NA,NA,NA,NA,NA,NA,NA,216,2100,0.02,20,"20c",NA,NA,NA,NA,NA,NA,NA,NA,NA,NA,NA,NA,NA,NA,NA,NA,NA,NA,NA,NA,NA,NA,NA,NA,NA,NA,NA,NA,NA,NA,NA,NA,NA,NA,NA,NA,NA,NA,NA,NA,NA,NA,NA,NA,NA,NA,NA,NA,NA,NA,NA,NA,NA,NA,NA,NA,NA,NA,NA,NA,NA,NA,NA,NA,NA,NA,NA,NA,NA,NA,NA,NA,NA,NA,NA,NA,NA
8,"CO_MMI",38.456699,-107.420998,1914,166978,"9125000","9125000","Curecanti Creek","9/7/2017",NA,NA,NA,"CO",NA,NA,NA,NA,NA,NA,NA,NA,250,2299,0.039,21,"21f",NA,NA,NA,NA,NA,NA,NA,NA,NA,NA,NA,NA,NA,NA,NA,NA,NA,NA,NA,NA,NA,NA,NA,NA,NA,NA,NA,NA,NA,NA,NA,NA,NA,NA,NA,NA,NA,NA,NA,NA,NA,NA,NA,NA,NA,NA,NA,NA,NA,NA,NA,NA,NA,NA,NA,NA,NA,NA,NA,NA,NA,NA,NA,NA,NA,NA,NA,NA,NA,NA,NA,NA,NA,NA,NA,NA,NA
8,"CO_MMI",38.483898,-107.170998,1914,166979,"3.83E+14","3.83E+14","East Elk Creek","8/15/2017",NA,NA,NA,"CO",NA,NA,NA,NA,NA,NA,NA,NA,228,2302,0.031,21,"21i",NA,NA,NA,NA,NA,NA,NA,NA,NA,NA,NA,NA,NA,NA,NA,NA,NA,NA,NA,NA,NA,NA,NA,NA,NA,NA,NA,NA,NA,NA,NA,NA,NA,NA,NA,NA,NA,NA,NA,NA,NA,NA,NA,NA,NA,NA,NA,NA,NA,NA,NA,NA,NA,NA,NA,NA,NA,NA,NA,NA,NA,NA,NA,NA,NA,NA,NA,NA,NA,NA,NA,NA,NA,NA,NA,NA,NA
8,"CO_MMI",38.376499,-107.240997,1914,166980,"3.82E+14","3.82E+14","Lake Fork River","8/24/2017",NA,NA,NA,"CO",NA,NA,NA,NA,NA,NA,NA,NA,237,2318,0.008,21,"21i",NA,NA,NA,NA,NA,NA,NA,NA,NA,NA,NA,NA,NA,NA,NA,NA,NA,NA,NA,NA,NA,NA,NA,NA,NA,NA,NA,NA,NA,NA,NA,NA,NA,NA,NA,NA,NA,NA,NA,NA,NA,NA,NA,NA,NA,NA,NA,NA,NA,NA,NA,NA,NA,NA,NA,NA,NA,NA,NA,NA,NA,NA,NA,NA,NA,NA,NA,NA,NA,NA,NA,NA,NA,NA,NA,NA,NA
8,"CO_MMI",38.4506,-107.345001,1914,166981,"3.83E+14","3.83E+14","Pine Creek","8/10/2017",NA,NA,NA,"CO",NA,NA,NA,NA,NA,NA,NA,NA,223,2266,0.119,21,"21i",NA,NA,NA,NA,NA,NA,NA,NA,NA,NA,NA,NA,NA,NA,NA,NA,NA,NA,NA,NA,NA,NA,NA,NA,NA,NA,NA,NA,NA,NA,NA,NA,NA,NA,NA,NA,NA,NA,NA,NA,NA,NA,NA,NA,NA,NA,NA,NA,NA,NA,NA,NA,NA,NA,NA,NA,NA,NA,NA,NA,NA,NA,NA,NA,NA,NA,NA,NA,NA,NA,NA,NA,NA,NA,NA,NA,NA
8,"CO_MMI",38.480202,-107.233002,1914,166982,"3.83E+14","3.83E+14","Red Creek","8/15/2017",NA,NA,NA,"CO",NA,NA,NA,NA,NA,NA,NA,NA,228,2316,0.033,21,"21i",NA,NA,NA,NA,NA,NA,NA,NA,NA,NA,NA,NA,NA,NA,NA,NA,NA,NA,NA,NA,NA,NA,NA,NA,NA,NA,NA,NA,NA,NA,NA,NA,NA,NA,NA,NA,NA,NA,NA,NA,NA,NA,NA,NA,NA,NA,NA,NA,NA,NA,NA,NA,NA,NA,NA,NA,NA,NA,NA,NA,NA,NA,NA,NA,NA,NA,NA,NA,NA,NA,NA,NA,NA,NA,NA,NA,NA
8,"CO_MMI",38.571602,-107.788002,1914,166983,"3.83E+14","RED_ROCK","Red Rock Creek","8/22/2017",NA,NA,NA,"CO",NA,NA,NA,NA,NA,NA,NA,NA,235,2041,0.067,20,"20c",NA,NA,NA,NA,NA,NA,NA,NA,NA,NA,NA,NA,NA,NA,NA,NA,NA,NA,NA,NA,NA,NA,NA,NA,NA,NA,NA,NA,NA,NA,NA,NA,NA,NA,NA,NA,NA,NA,NA,NA,NA,NA,NA,NA,NA,NA,NA,NA,NA,NA,NA,NA,NA,NA,NA,NA,NA,NA,NA,NA,NA,NA,NA,NA,NA,NA,NA,NA,NA,NA,NA,NA,NA,NA,NA,NA,NA
8,"CO_MMI",38.528999,-107.310997,1914,166984,"3.83E+14","3.83E+14","Soap Creek","8/28/2017",NA,NA,NA,"CO",NA,NA,NA,NA,NA,NA,NA,NA,241,2310,0.02,21,"21h",NA,NA,NA,NA,NA,NA,NA,NA,NA,NA,NA,NA,NA,NA,NA,NA,NA,NA,NA,NA,NA,NA,NA,NA,NA,NA,NA,NA,NA,NA,NA,NA,NA,NA,NA,NA,NA,NA,NA,NA,NA,NA,NA,NA,NA,NA,NA,NA,NA,NA,NA,NA,NA,NA,NA,NA,NA,NA,NA,NA,NA,NA,NA,NA,NA,NA,NA,NA,NA,NA,NA,NA,NA,NA,NA,NA,NA
8,"CO_MMI",38.493401,-107.059998,1914,166985,"3.83E+14","3.83E+14","Steuben Creek","8/17/2017",NA,NA,NA,"CO",NA,NA,NA,NA,NA,NA,NA,NA,230,2297,0.032,21,"21i",NA,NA,NA,NA,NA,NA,NA,NA,NA,NA,NA,NA,NA,NA,NA,NA,NA,NA,NA,NA,NA,NA,NA,NA,NA,NA,NA,NA,NA,NA,NA,NA,NA,NA,NA,NA,NA,NA,NA,NA,NA,NA,NA,NA,NA,NA,NA,NA,NA,NA,NA,NA,NA,NA,NA,NA,NA,NA,NA,NA,NA,NA,NA,NA,NA,NA,NA,NA,NA,NA,NA,NA,NA,NA,NA,NA,NA
8,"CO_MMI",38.511902,-107.269997,1914,166986,"3.83E+14","3.83E+14","West Elk Creek","8/31/2017",NA,NA,NA,"CO",NA,NA,NA,NA,NA,NA,NA,NA,244,2336,0.048,21,"21h",NA,NA,NA,NA,NA,NA,NA,NA,NA,NA,NA,NA,NA,NA,NA,NA,NA,NA,NA,NA,NA,NA,NA,NA,NA,NA,NA,NA,NA,NA,NA,NA,NA,NA,NA,NA,NA,NA,NA,NA,NA,NA,NA,NA,NA,NA,NA,NA,NA,NA,NA,NA,NA,NA,NA,NA,NA,NA,NA,NA,NA,NA,NA,NA,NA,NA,NA,NA,NA,NA,NA,NA,NA,NA,NA,NA,NA
9,"PIBO",44.8358994,-113.677002,1920,164288,"SA-LS-13578","SA-LS-13578","BASIN CREEK","7/11/2017","658BE268-F242-412A-9F26-AB907DDDF619",NA,NA,"ID",NA,NA,NA,NA,NA,NA,NA,NA,NA,NA,NA,NA,NA,NA,NA,NA,NA,NA,NA,NA,NA,NA,NA,NA,NA,NA,NA,NA,282,3.39095,114.1159973,2.0573499,NA,NA,NA,NA,NA,NA,NA,NA,NA,NA,NA,NA,NA,NA,NA,NA,NA,NA,NA,NA,NA,NA,NA,NA,NA,NA,NA,NA,NA,NA,NA,NA,NA,NA,NA,NA,NA,NA,NA,NA,NA,NA,NA,NA,NA,NA,NA,NA,NA,NA,NA,NA,NA,NA,NA,NA,NA,NA
9,"PIBO",44.9749985,-113.5179977,1920,164289,"SA-LS-13770","SA-LS-13770","AGENCY CREEK","7/6/2017","2F11C3C0-A108-45DA-89DD-FD74BFE88B1C",NA,NA,"ID",NA,NA,NA,NA,NA,NA,NA,NA,NA,NA,NA,NA,NA,NA,NA,NA,NA,NA,NA,NA,NA,NA,NA,NA,NA,NA,NA,NA,250,3.6235399,54.8233986,1.73897,NA,NA,NA,NA,NA,NA,NA,NA,NA,NA,NA,NA,NA,NA,NA,NA,NA,NA,NA,NA,NA,NA,NA,NA,NA,NA,NA,NA,NA,NA,NA,NA,NA,NA,NA,NA,NA,NA,NA,NA,NA,NA,NA,NA,NA,NA,NA,NA,NA,NA,NA,NA,NA,NA,NA,NA,NA,NA
9,"PIBO",44.9749985,-113.5179977,1920,164290,"SA-LS-13770","SA-LS-13770","AGENCY CREEK","7/7/2017","30846500-7DB4-4A35-B00B-764193AD1A83",NA,NA,"ID",NA,NA,NA,NA,NA,NA,NA,NA,NA,NA,NA,NA,NA,NA,NA,NA,NA,NA,NA,NA,NA,NA,NA,NA,NA,NA,NA,NA,250,3.6235399,54.8233986,1.73897,NA,NA,NA,NA,NA,NA,NA,NA,NA,NA,NA,NA,NA,NA,NA,NA,NA,NA,NA,NA,NA,NA,NA,NA,NA,NA,NA,NA,NA,NA,NA,NA,NA,NA,NA,NA,NA,NA,NA,NA,NA,NA,NA,NA,NA,NA,NA,NA,NA,NA,NA,NA,NA,NA,NA,NA,NA,NA
9,"PIBO",44.9230995,-113.7310028,1920,164291,"SA-LS-14026","SA-LS-14026","MCDEVITT CREEK","7/8/2017","3AC6987E-1D11-4B8C-BC8E-1B06DAEB923C",NA,NA,"ID",NA,NA,NA,NA,NA,NA,NA,NA,NA,NA,NA,NA,NA,NA,NA,NA,NA,NA,NA,NA,NA,NA,NA,NA,NA,NA,NA,NA,258,3.5901999,36.7444,1.56519,NA,NA,NA,NA,NA,NA,NA,NA,NA,NA,NA,NA,NA,NA,NA,NA,NA,NA,NA,NA,NA,NA,NA,NA,NA,NA,NA,NA,NA,NA,NA,NA,NA,NA,NA,NA,NA,NA,NA,NA,NA,NA,NA,NA,NA,NA,NA,NA,NA,NA,NA,NA,NA,NA,NA,NA,NA,NA
9,"PIBO",44.2615013,-112.9820023,1920,164292,"SA-LS-14070","SA-LS-14070","BIRCH CREEK","9/8/2017","32C47EF0-84F0-43BA-8B4C-BF39CC6A33C6",NA,NA,"ID",NA,NA,NA,NA,NA,NA,NA,NA,NA,NA,NA,NA,NA,NA,NA,NA,NA,NA,NA,NA,NA,NA,NA,NA,NA,NA,NA,NA,261,3.45116,0.268479,-0.57109,NA,NA,NA,NA,NA,NA,NA,NA,NA,NA,NA,NA,NA,NA,NA,NA,NA,NA,NA,NA,NA,NA,NA,NA,NA,NA,NA,NA,NA,NA,NA,NA,NA,NA,NA,NA,NA,NA,NA,NA,NA,NA,NA,NA,NA,NA,NA,NA,NA,NA,NA,NA,NA,NA,NA,NA,NA,NA
9,"PIBO",44.7919998,-113.6999969,1920,164293,"SA-LS-14602","SA-LS-14602","HAYDEN CREEK","7/21/2017","62250BC3-3166-4EAB-B597-017438B375AF",NA,NA,"ID",NA,NA,NA,NA,NA,NA,NA,NA,NA,NA,NA,NA,NA,NA,NA,NA,NA,NA,NA,NA,NA,NA,NA,NA,NA,NA,NA,NA,250,3.5035601,212.7449951,2.3278601,NA,NA,NA,NA,NA,NA,NA,NA,NA,NA,NA,NA,NA,NA,NA,NA,NA,NA,NA,NA,NA,NA,NA,NA,NA,NA,NA,NA,NA,NA,NA,NA,NA,NA,NA,NA,NA,NA,NA,NA,NA,NA,NA,NA,NA,NA,NA,NA,NA,NA,NA,NA,NA,NA,NA,NA,NA,NA
9,"PIBO",45.2285995,-113.6930008,1920,164294,"SA-SS-12602","SA-SS-12602","GEERTSON CREEK","8/8/2017","E120E9B7-9204-4BFF-8563-FC6A280AC620",NA,NA,"ID",NA,NA,NA,NA,NA,NA,NA,NA,NA,NA,NA,NA,NA,NA,NA,NA,NA,NA,NA,NA,NA,NA,NA,NA,NA,NA,NA,NA,191,3.7895801,7.0619302,0.848923,NA,NA,NA,NA,NA,NA,NA,NA,NA,NA,NA,NA,NA,NA,NA,NA,NA,NA,NA,NA,NA,NA,NA,NA,NA,NA,NA,NA,NA,NA,NA,NA,NA,NA,NA,NA,NA,NA,NA,NA,NA,NA,NA,NA,NA,NA,NA,NA,NA,NA,NA,NA,NA,NA,NA,NA,NA,NA
9,"PIBO",44.9387016,-113.5080032,1920,164295,"SA-SS-12746","SA-SS-12746","SHARKEY CREEK","7/20/2017","C1B4B9E6-D5EF-43BC-AB3F-7CA954A8E0A3",NA,NA,"ID",NA,NA,NA,NA,NA,NA,NA,NA,NA,NA,NA,NA,NA,NA,NA,NA,NA,NA,NA,NA,NA,NA,NA,NA,NA,NA,NA,NA,210,3.7190101,1.0345401,0.0147473,NA,NA,NA,NA,NA,NA,NA,NA,NA,NA,NA,NA,NA,NA,NA,NA,NA,NA,NA,NA,NA,NA,NA,NA,NA,NA,NA,NA,NA,NA,NA,NA,NA,NA,NA,NA,NA,NA,NA,NA,NA,NA,NA,NA,NA,NA,NA,NA,NA,NA,NA,NA,NA,NA,NA,NA,NA,NA
9,"PIBO",44.9634018,-113.9970016,1920,164296,"SA-SS-13178","SA-SS-13178","RATTLESNAKE CREEK","8/4/2017","E0B7C6D0-E7DC-4014-8523-A9F189614C93",NA,NA,"ID",NA,NA,NA,NA,NA,NA,NA,NA,NA,NA,NA,NA,NA,NA,NA,NA,NA,NA,NA,NA,NA,NA,NA,NA,NA,NA,NA,NA,269,3.53913,13.8485003,1.1414,NA,NA,NA,NA,NA,NA,NA,NA,NA,NA,NA,NA,NA,NA,NA,NA,NA,NA,NA,NA,NA,NA,NA,NA,NA,NA,NA,NA,NA,NA,NA,NA,NA,NA,NA,NA,NA,NA,NA,NA,NA,NA,NA,NA,NA,NA,NA,NA,NA,NA,NA,NA,NA,NA,NA,NA,NA,NA
9,"PIBO",44.8614998,-113.5419998,1920,164297,"SA-SS-13258","SA-SS-13258","SOUTH FORK YEARIAN CREEK","7/7/2017","A95B6A0B-9323-4883-AF8A-F8629E915C48",NA,NA,"ID",NA,NA,NA,NA,NA,NA,NA,NA,NA,NA,NA,NA,NA,NA,NA,NA,NA,NA,NA,NA,NA,NA,NA,NA,NA,NA,NA,NA,253,3.5718901,18.2994995,1.26244,NA,NA,NA,NA,NA,NA,NA,NA,NA,NA,NA,NA,NA,NA,NA,NA,NA,NA,NA,NA,NA,NA,NA,NA,NA,NA,NA,NA,NA,NA,NA,NA,NA,NA,NA,NA,NA,NA,NA,NA,NA,NA,NA,NA,NA,NA,NA,NA,NA,NA,NA,NA,NA,NA,NA,NA,NA,NA
9,"PIBO",44.8773994,-113.7860031,1920,164298,"SA-SS-13322","SA-SS-13322","GROUSE CREEK - RANDOM","7/23/2017","70D86D01-9343-4B68-9D24-56C8636773DF",NA,NA,"ID",NA,NA,NA,NA,NA,NA,NA,NA,NA,NA,NA,NA,NA,NA,NA,NA,NA,NA,NA,NA,NA,NA,NA,NA,NA,NA,NA,NA,251,3.5818701,7.2975798,0.863179,NA,NA,NA,NA,NA,NA,NA,NA,NA,NA,NA,NA,NA,NA,NA,NA,NA,NA,NA,NA,NA,NA,NA,NA,NA,NA,NA,NA,NA,NA,NA,NA,NA,NA,NA,NA,NA,NA,NA,NA,NA,NA,NA,NA,NA,NA,NA,NA,NA,NA,NA,NA,NA,NA,NA,NA,NA,NA
9,"PIBO",44.8655014,-113.9329987,1920,164299,"SA-SS-13434","SA-SS-13434","SOUTH FORK POISON CREEK","8/5/2017","77767004-8868-4D78-8774-F34EC5B20F8B",NA,NA,"ID",NA,NA,NA,NA,NA,NA,NA,NA,NA,NA,NA,NA,NA,NA,NA,NA,NA,NA,NA,NA,NA,NA,NA,NA,NA,NA,NA,NA,266,3.3805001,18.3682003,1.26407,NA,NA,NA,NA,NA,NA,NA,NA,NA,NA,NA,NA,NA,NA,NA,NA,NA,NA,NA,NA,NA,NA,NA,NA,NA,NA,NA,NA,NA,NA,NA,NA,NA,NA,NA,NA,NA,NA,NA,NA,NA,NA,NA,NA,NA,NA,NA,NA,NA,NA,NA,NA,NA,NA,NA,NA,NA,NA
9,"PIBO",45.1110001,-113.6429977,1920,164300,"SA-SS-13626","SA-SS-13626","PRATT CREEK","7/9/2017","A0380222-9D4D-485C-91F4-039675897DF6",NA,NA,"ID",NA,NA,NA,NA,NA,NA,NA,NA,NA,NA,NA,NA,NA,NA,NA,NA,NA,NA,NA,NA,NA,NA,NA,NA,NA,NA,NA,NA,244,3.5935099,15.2462997,1.1831599,NA,NA,NA,NA,NA,NA,NA,NA,NA,NA,NA,NA,NA,NA,NA,NA,NA,NA,NA,NA,NA,NA,NA,NA,NA,NA,NA,NA,NA,NA,NA,NA,NA,NA,NA,NA,NA,NA,NA,NA,NA,NA,NA,NA,NA,NA,NA,NA,NA,NA,NA,NA,NA,NA,NA,NA,NA,NA
9,"PIBO",44.8233986,-113.9990005,1920,164301,"SA-SS-13690","SA-SS-13690","EZRA CREEK","8/3/2017","96528C98-7163-4175-A591-5147A544C186",NA,NA,"ID",NA,NA,NA,NA,NA,NA,NA,NA,NA,NA,NA,NA,NA,NA,NA,NA,NA,NA,NA,NA,NA,NA,NA,NA,NA,NA,NA,NA,298,3.3817501,7.95186,0.900469,NA,NA,NA,NA,NA,NA,NA,NA,NA,NA,NA,NA,NA,NA,NA,NA,NA,NA,NA,NA,NA,NA,NA,NA,NA,NA,NA,NA,NA,NA,NA,NA,NA,NA,NA,NA,NA,NA,NA,NA,NA,NA,NA,NA,NA,NA,NA,NA,NA,NA,NA,NA,NA,NA,NA,NA,NA,NA
9,"PIBO",45.2865982,-113.9100037,1920,164302,"SA-SS-13882","SA-SS-13882","DIAMOND CREEK","8/6/2017","F2B73C14-2401-469F-8B54-519C97F4E071",NA,NA,"ID",NA,NA,NA,NA,NA,NA,NA,NA,NA,NA,NA,NA,NA,NA,NA,NA,NA,NA,NA,NA,NA,NA,NA,NA,NA,NA,NA,NA,312,3.40325,8.9889698,0.95371,NA,NA,NA,NA,NA,NA,NA,NA,NA,NA,NA,NA,NA,NA,NA,NA,NA,NA,NA,NA,NA,NA,NA,NA,NA,NA,NA,NA,NA,NA,NA,NA,NA,NA,NA,NA,NA,NA,NA,NA,NA,NA,NA,NA,NA,NA,NA,NA,NA,NA,NA,NA,NA,NA,NA,NA,NA,NA
9,"PIBO",44.4749985,-113.0550003,1920,164303,"SA-SS-14110","SA-SS-14110","EIGHTEENMILE CREEK","7/24/2017","C02950C5-745B-4882-BD68-979CD9CC1D8D",NA,NA,"ID",NA,NA,NA,NA,NA,NA,NA,NA,NA,NA,NA,NA,NA,NA,NA,NA,NA,NA,NA,NA,NA,NA,NA,NA,NA,NA,NA,NA,210,3.6884999,13.7571001,1.13853,NA,NA,NA,NA,NA,NA,NA,NA,NA,NA,NA,NA,NA,NA,NA,NA,NA,NA,NA,NA,NA,NA,NA,NA,NA,NA,NA,NA,NA,NA,NA,NA,NA,NA,NA,NA,NA,NA,NA,NA,NA,NA,NA,NA,NA,NA,NA,NA,NA,NA,NA,NA,NA,NA,NA,NA,NA,NA
9,"PIBO",44.8722992,-114.0390015,1920,164304,"SA-SS-14458","SA-SS-14458","CABIN CREEK","7/25/2017","6C8AEA7E-E440-4CC3-934F-B4BAF762C3BF",NA,NA,"ID",NA,NA,NA,NA,NA,NA,NA,NA,NA,NA,NA,NA,NA,NA,NA,NA,NA,NA,NA,NA,NA,NA,NA,NA,NA,NA,NA,NA,261,3.66207,1.95275,0.290647,NA,NA,NA,NA,NA,NA,NA,NA,NA,NA,NA,NA,NA,NA,NA,NA,NA,NA,NA,NA,NA,NA,NA,NA,NA,NA,NA,NA,NA,NA,NA,NA,NA,NA,NA,NA,NA,NA,NA,NA,NA,NA,NA,NA,NA,NA,NA,NA,NA,NA,NA,NA,NA,NA,NA,NA,NA,NA
9,"PIBO",44.7462997,-113.538002,1920,164305,"SA-SS-14538","SA-SS-14538","FERRY CREEK","8/16/2017","3392442A-9932-4FA4-B317-102269CF1D84",NA,NA,"ID",NA,NA,NA,NA,NA,NA,NA,NA,NA,NA,NA,NA,NA,NA,NA,NA,NA,NA,NA,NA,NA,NA,NA,NA,NA,NA,NA,NA,279,3.36392,8.3512497,0.921751,NA,NA,NA,NA,NA,NA,NA,NA,NA,NA,NA,NA,NA,NA,NA,NA,NA,NA,NA,NA,NA,NA,NA,NA,NA,NA,NA,NA,NA,NA,NA,NA,NA,NA,NA,NA,NA,NA,NA,NA,NA,NA,NA,NA,NA,NA,NA,NA,NA,NA,NA,NA,NA,NA,NA,NA,NA,NA
9,"PIBO",45.2705994,-113.7320023,1920,164306,"SA-SS-14650","SA-SS-14650","FREEMAN CREEK","8/17/2017","1931E7DC-272A-4B08-8ADB-DAFCD1C764B7",NA,NA,"ID",NA,NA,NA,NA,NA,NA,NA,NA,NA,NA,NA,NA,NA,NA,NA,NA,NA,NA,NA,NA,NA,NA,NA,NA,NA,NA,NA,NA,211,3.6730199,7.5537,0.87816,NA,NA,NA,NA,NA,NA,NA,NA,NA,NA,NA,NA,NA,NA,NA,NA,NA,NA,NA,NA,NA,NA,NA,NA,NA,NA,NA,NA,NA,NA,NA,NA,NA,NA,NA,NA,NA,NA,NA,NA,NA,NA,NA,NA,NA,NA,NA,NA,NA,NA,NA,NA,NA,NA,NA,NA,NA,NA
9,"PIBO",44.9634018,-113.4629974,1920,164307,"SA-SS-14794","SA-SS-14794","COPPER QUEEN CREEK","9/7/2017","302EE11C-3CB0-40B9-A264-B64C6A96B76E",NA,NA,"ID",NA,NA,NA,NA,NA,NA,NA,NA,NA,NA,NA,NA,NA,NA,NA,NA,NA,NA,NA,NA,NA,NA,NA,NA,NA,NA,NA,NA,236,3.7081499,2.0497301,0.311697,NA,NA,NA,NA,NA,NA,NA,NA,NA,NA,NA,NA,NA,NA,NA,NA,NA,NA,NA,NA,NA,NA,NA,NA,NA,NA,NA,NA,NA,NA,NA,NA,NA,NA,NA,NA,NA,NA,NA,NA,NA,NA,NA,NA,NA,NA,NA,NA,NA,NA,NA,NA,NA,NA,NA,NA,NA,NA
9,"PIBO",44.8713989,-113.7799988,1920,164308,"SA-TR-1226","SA-TR-1226","GROUSE CREEK - TARGET","7/23/2017","1A11BD42-2B8E-4292-B983-C13899A60E53",NA,NA,"ID",NA,NA,NA,NA,NA,NA,NA,NA,NA,NA,NA,NA,NA,NA,NA,NA,NA,NA,NA,NA,NA,NA,NA,NA,NA,NA,NA,NA,259,3.5818701,10.6359997,1.02678,NA,NA,NA,NA,NA,NA,NA,NA,NA,NA,NA,NA,NA,NA,NA,NA,NA,NA,NA,NA,NA,NA,NA,NA,NA,NA,NA,NA,NA,NA,NA,NA,NA,NA,NA,NA,NA,NA,NA,NA,NA,NA,NA,NA,NA,NA,NA,NA,NA,NA,NA,NA,NA,NA,NA,NA,NA,NA
9,"PIBO",44.8628006,-113.8079987,1920,164309,"SA-TR-1334","SA-TR-1334","TRAIL CREEK","8/14/2017","190411A7-B2B8-460C-B2EE-2F92535D9C2E",NA,NA,"ID",NA,NA,NA,NA,NA,NA,NA,NA,NA,NA,NA,NA,NA,NA,NA,NA,NA,NA,NA,NA,NA,NA,NA,NA,NA,NA,NA,NA,240,3.67642,10.7895002,1.033,NA,NA,NA,NA,NA,NA,NA,NA,NA,NA,NA,NA,NA,NA,NA,NA,NA,NA,NA,NA,NA,NA,NA,NA,NA,NA,NA,NA,NA,NA,NA,NA,NA,NA,NA,NA,NA,NA,NA,NA,NA,NA,NA,NA,NA,NA,NA,NA,NA,NA,NA,NA,NA,NA,NA,NA,NA,NA
10,"UTDEQ15",39.45313333,-110.6285833,1921,164311,"G5071","G5071","Price River","8/10/2017","1361F656-1EF7-4EA1-81F0-65BEA67E251D",NA,NA,"UT",NA,NA,NA,NA,NA,NA,NA,NA,NA,NA,NA,NA,NA,328,270.8120117,55.5369987,-124.5950012,49.9360008,94,442.0280151,49.4259987,7.3569999,260.8529968,3098.159912,1599.099976,2271.350098,39.4491005,2481.810059,NA,NA,NA,NA,NA,NA,NA,NA,NA,NA,NA,NA,NA,NA,NA,NA,NA,NA,NA,NA,NA,NA,NA,NA,NA,NA,NA,NA,NA,NA,NA,NA,NA,NA,NA,NA,NA,NA,NA,NA,NA,NA,NA,NA,NA,NA,NA,NA,NA,NA,NA,NA,NA,NA,NA,NA,NA,NA,NA,NA,NA,NA
10,"UTDEQ15",39.81176,-110.915702,1921,164312,"GR-TR-1044","GR-TR-1044","HORSE CREEK","6/14/2017","54AF60FB-9C10-4C5C-8BFA-61983D5EDBC6",NA,NA,"UT",NA,NA,NA,NA,NA,NA,NA,NA,NA,NA,NA,NA,NA,267,258,44.6500015,-131.1499939,49.0429993,46,504.6000061,54.9420013,7,258.25,2695.129883,2139.5,2408.25,39.8116989,17.0972996,NA,NA,NA,NA,NA,NA,NA,NA,NA,NA,NA,NA,NA,NA,NA,NA,NA,NA,NA,NA,NA,NA,NA,NA,NA,NA,NA,NA,NA,NA,NA,NA,NA,NA,NA,NA,NA,NA,NA,NA,NA,NA,NA,NA,NA,NA,NA,NA,NA,NA,NA,NA,NA,NA,NA,NA,NA,NA,NA,NA,NA,NA
10,"UTDEQ15",38.75038611,-110.1445194,1921,164313,"GR-TR-1106","San Rafael 6","San Rafael 6 Beaver Dam left","9/19/2017","24E367FD-247C-49A2-BBD4-79CC74C59A9C",NA,NA,"UT",NA,NA,NA,NA,NA,NA,NA,NA,NA,NA,NA,NA,NA,362,299.6900024,82.5139999,-107.3649979,51.4350014,118,325.7539978,38.5359993,6.3720002,271.5859985,1995.310059,1227.5,1954.369995,38.7507019,6247.310059,NA,NA,NA,NA,NA,NA,NA,NA,NA,NA,NA,NA,NA,NA,NA,NA,NA,NA,NA,NA,NA,NA,NA,NA,NA,NA,NA,NA,NA,NA,NA,NA,NA,NA,NA,NA,NA,NA,NA,NA,NA,NA,NA,NA,NA,NA,NA,NA,NA,NA,NA,NA,NA,NA,NA,NA,NA,NA,NA,NA,NA,NA
10,"UTDEQ15",39.620033,-110.95632,1921,164314,"GR-TR-1205","GR-TR-1205","GORDON CREEK NORTH FORK","6/12/2017","39C61CD0-13E3-4DAF-84C6-8251B200569F",NA,NA,"UT",NA,NA,NA,NA,NA,NA,NA,NA,NA,NA,NA,NA,NA,299,263.6900024,51.6609993,-123.322998,49.2290001,71,445.5209961,50.3720016,7.2849998,257.5,3333.879883,1891.699951,2369.300049,39.6199989,60.3866997,NA,NA,NA,NA,NA,NA,NA,NA,NA,NA,NA,NA,NA,NA,NA,NA,NA,NA,NA,NA,NA,NA,NA,NA,NA,NA,NA,NA,NA,NA,NA,NA,NA,NA,NA,NA,NA,NA,NA,NA,NA,NA,NA,NA,NA,NA,NA,NA,NA,NA,NA,NA,NA,NA,NA,NA,NA,NA,NA,NA,NA,NA
10,"UTDEQ15",37.86057281,-112.491728,1921,164315,"GR-TR-1289","3MILEUP","3 Mile Creek","7/26/2017","0D1EB470-94A9-4231-AB3A-F9240C3B0243",NA,NA,"UT",NA,NA,NA,NA,NA,NA,NA,NA,NA,NA,NA,NA,NA,283,248.8139954,51.5369987,-113.5920029,53.0709991,68,495.8699951,60.5800018,9,248.1109924,2893.360107,2101.199951,2470.090088,37.8608017,44.8199997,NA,NA,NA,NA,NA,NA,NA,NA,NA,NA,NA,NA,NA,NA,NA,NA,NA,NA,NA,NA,NA,NA,NA,NA,NA,NA,NA,NA,NA,NA,NA,NA,NA,NA,NA,NA,NA,NA,NA,NA,NA,NA,NA,NA,NA,NA,NA,NA,NA,NA,NA,NA,NA,NA,NA,NA,NA,NA,NA,NA,NA,NA
10,"UTDEQ15",39.619712,-110.958465,1921,164316,"GR-TR-1421","GR-TR-1421","GORDON CREEK SOUTH FORK","6/13/2017","C8E3A5C7-39E4-4D50-B407-6004DA3A3CFA",NA,NA,"UT",NA,NA,NA,NA,NA,NA,NA,NA,NA,NA,NA,NA,NA,299,256.4630127,46.1759987,-126.939003,48.6990013,71,472.0539856,55.0909996,7.5180001,259.3330078,3465.669922,1888.900024,2419.689941,39.6197014,136.7290039,NA,NA,NA,NA,NA,NA,NA,NA,NA,NA,NA,NA,NA,NA,NA,NA,NA,NA,NA,NA,NA,NA,NA,NA,NA,NA,NA,NA,NA,NA,NA,NA,NA,NA,NA,NA,NA,NA,NA,NA,NA,NA,NA,NA,NA,NA,NA,NA,NA,NA,NA,NA,NA,NA,NA,NA,NA,NA,NA,NA,NA,NA
10,"UTDEQ15",39.952825,-109.15822,1921,164317,"GR-TR-1492","GR-TR-1492","","8/17/2017","423EC703-3E71-48D0-8E46-B82EC7A954FC",NA,NA,"UT",NA,NA,NA,NA,NA,NA,NA,NA,NA,NA,NA,NA,NA,335,296.7409973,76.9509964,-111.0319977,55.5019989,89,360.1220093,45.1010017,6.5029998,274.2479858,2310.419922,1548,2032.959961,39.9527016,737.4849854,NA,NA,NA,NA,NA,NA,NA,NA,NA,NA,NA,NA,NA,NA,NA,NA,NA,NA,NA,NA,NA,NA,NA,NA,NA,NA,NA,NA,NA,NA,NA,NA,NA,NA,NA,NA,NA,NA,NA,NA,NA,NA,NA,NA,NA,NA,NA,NA,NA,NA,NA,NA,NA,NA,NA,NA,NA,NA,NA,NA,NA,NA
10,"UTDEQ15",39.30569,-110.0627554,1921,164318,"PR-LS-13308","SPR12-04","Spring 4","8/1/2017","8854A55F-CFD7-44A6-BD2D-50C69B9FCB08",NA,NA,"NV",NA,NA,NA,NA,NA,NA,NA,NA,NA,NA,NA,NA,NA,346,293.868988,81.6309967,-96.322998,51.1360016,111,360.1600037,43.9020004,6,281.5,2658.350098,1297.699951,2170.199951,39.3054008,375.6170044,NA,NA,NA,NA,NA,NA,NA,NA,NA,NA,NA,NA,NA,NA,NA,NA,NA,NA,NA,NA,NA,NA,NA,NA,NA,NA,NA,NA,NA,NA,NA,NA,NA,NA,NA,NA,NA,NA,NA,NA,NA,NA,NA,NA,NA,NA,NA,NA,NA,NA,NA,NA,NA,NA,NA,NA,NA,NA,NA,NA,NA,NA
10,"UTDEQ15",39.621184,-110.670834,1921,164319,"PR-LS-13628","PR-LS-13628","COAL CREEK","6/6/2017","137C8894-1753-4482-914B-03CA881E8F56",NA,NA,"UT",NA,NA,NA,NA,NA,NA,NA,NA,NA,NA,NA,NA,NA,319,282.8039856,64.6539993,-115.9919968,50.4399986,85,411.4060059,44.3349991,6.5710001,268.5710144,2632.820068,1739.5,2214.120117,39.6212997,109.2160034,NA,NA,NA,NA,NA,NA,NA,NA,NA,NA,NA,NA,NA,NA,NA,NA,NA,NA,NA,NA,NA,NA,NA,NA,NA,NA,NA,NA,NA,NA,NA,NA,NA,NA,NA,NA,NA,NA,NA,NA,NA,NA,NA,NA,NA,NA,NA,NA,NA,NA,NA,NA,NA,NA,NA,NA,NA,NA,NA,NA,NA,NA
10,"UTDEQ15",39.621184,-110.670834,1921,164320,"PR-LS-13628","PR-LS-13628","COAL CREEK","6/25/2017","33A60797-0B44-4A10-8030-3AFC75F027BC",NA,NA,"UT",NA,NA,NA,NA,NA,NA,NA,NA,NA,NA,NA,NA,NA,319,282.8039856,64.6539993,-115.9919968,50.4399986,85,411.4060059,44.3349991,6.5710001,268.5710144,2632.820068,1739.5,2214.120117,39.6212997,109.2160034,NA,NA,NA,NA,NA,NA,NA,NA,NA,NA,NA,NA,NA,NA,NA,NA,NA,NA,NA,NA,NA,NA,NA,NA,NA,NA,NA,NA,NA,NA,NA,NA,NA,NA,NA,NA,NA,NA,NA,NA,NA,NA,NA,NA,NA,NA,NA,NA,NA,NA,NA,NA,NA,NA,NA,NA,NA,NA,NA,NA,NA,NA
10,"UTDEQ15",39.421914,-110.202248,1921,164321,"PR-LS-14012","PR-LS-14012","RANGE CREEK","7/31/2017","4ECCE8C8-97DC-4387-AA34-F90CA5316F69",NA,NA,"UT",NA,NA,NA,NA,NA,NA,NA,NA,NA,NA,NA,NA,NA,309,269.5440063,63.632,-104.1610031,50.3610001,90,442.5339966,54.0800018,6.757,275.7569885,3475.540039,1809.900024,2481.709961,39.4219017,169.720993,NA,NA,NA,NA,NA,NA,NA,NA,NA,NA,NA,NA,NA,NA,NA,NA,NA,NA,NA,NA,NA,NA,NA,NA,NA,NA,NA,NA,NA,NA,NA,NA,NA,NA,NA,NA,NA,NA,NA,NA,NA,NA,NA,NA,NA,NA,NA,NA,NA,NA,NA,NA,NA,NA,NA,NA,NA,NA,NA,NA,NA,NA
10,"UTDEQ15",39.524044,-110.031064,1921,164322,"PR-RV-10300","PR-RV-10300","GREEN RIVER","9/5/2017","2F7FA4DB-E63D-4EDA-8FD7-7E82BB8D2401",NA,NA,"UT",NA,NA,NA,NA,NA,NA,NA,NA,NA,NA,NA,NA,NA,338,294.4710083,75.0899963,-117.8420029,51.7809982,98,341.855011,39.8600006,5.927,272.1430054,2140.360107,1341,2045.829956,39.5234985,6046.100098,NA,NA,NA,NA,NA,NA,NA,NA,NA,NA,NA,NA,NA,NA,NA,NA,NA,NA,NA,NA,NA,NA,NA,NA,NA,NA,NA,NA,NA,NA,NA,NA,NA,NA,NA,NA,NA,NA,NA,NA,NA,NA,NA,NA,NA,NA,NA,NA,NA,NA,NA,NA,NA,NA,NA,NA,NA,NA,NA,NA,NA,NA
10,"UTDEQ15",39.25012,-110.275291,1921,164323,"PR-RV-10492","PR-RV-10492","PRICE RIVER","8/9/2017","0B5E82DB-03CD-4F77-8C44-BEA7B0477C69",NA,NA,"UT",NA,NA,NA,NA,NA,NA,NA,NA,NA,NA,NA,NA,NA,348,291.2399902,70.6240005,-118.9199982,50.6819992,104,367.0140076,42.5540009,6.724,268.3460083,2536.5,1394.300049,2065.469971,39.2501984,4618.220215,NA,NA,NA,NA,NA,NA,NA,NA,NA,NA,NA,NA,NA,NA,NA,NA,NA,NA,NA,NA,NA,NA,NA,NA,NA,NA,NA,NA,NA,NA,NA,NA,NA,NA,NA,NA,NA,NA,NA,NA,NA,NA,NA,NA,NA,NA,NA,NA,NA,NA,NA,NA,NA,NA,NA,NA,NA,NA,NA,NA,NA,NA
10,"UTDEQ15",39.349693,-110.495359,1921,164324,"PR-RV-10940","PR-RV-10940","PRICE RIVER","8/29/2017","23D688B7-2506-47C2-83BF-1AE2BF011745",NA,NA,"UT",NA,NA,NA,NA,NA,NA,NA,NA,NA,NA,NA,NA,NA,340,280.95401,63.012001,-122.0009995,50.2080002,101,399.8099976,45.1040001,7.1110001,263.5939941,2823.52002,1500.300049,2162.27002,39.3493996,3229.449951,NA,NA,NA,NA,NA,NA,NA,NA,NA,NA,NA,NA,NA,NA,NA,NA,NA,NA,NA,NA,NA,NA,NA,NA,NA,NA,NA,NA,NA,NA,NA,NA,NA,NA,NA,NA,NA,NA,NA,NA,NA,NA,NA,NA,NA,NA,NA,NA,NA,NA,NA,NA,NA,NA,NA,NA,NA,NA,NA,NA,NA,NA
10,"UTDEQ15",39.288094,-110.3792958,1921,164325,"PR-RV-12988","PR-RV-12988","PRICE RIVER","7/17/2017","77E61D36-99A0-4A3D-9ACA-ACE50DB1D107",NA,NA,"UT",NA,NA,NA,NA,NA,NA,NA,NA,NA,NA,NA,NA,NA,352,288.3680115,68.737999,-119.1299973,50.487999,102,375.2780151,43.4490013,6.7729998,268.0270081,2611.25,1420.400024,2097.02002,39.2879982,4325.580078,NA,NA,NA,NA,NA,NA,NA,NA,NA,NA,NA,NA,NA,NA,NA,NA,NA,NA,NA,NA,NA,NA,NA,NA,NA,NA,NA,NA,NA,NA,NA,NA,NA,NA,NA,NA,NA,NA,NA,NA,NA,NA,NA,NA,NA,NA,NA,NA,NA,NA,NA,NA,NA,NA,NA,NA,NA,NA,NA,NA,NA,NA
10,"UTDEQ15",38.729899,-110.208119,1921,164326,"PR-RV-13180","PR-RV-13180",NA,"9/11/2017","FA7E31CA-B49F-4112-994E-97813667D435",NA,NA,"UT",NA,NA,NA,NA,NA,NA,NA,NA,NA,NA,NA,NA,NA,354,296.7630005,80.3820038,-108.4869995,51.3479996,118,332.8200073,39.1030006,6.4840002,270.3169861,2043.199951,1238.699951,1982.819946,38.7299004,5834.729981,NA,NA,NA,NA,NA,NA,NA,NA,NA,NA,NA,NA,NA,NA,NA,NA,NA,NA,NA,NA,NA,NA,NA,NA,NA,NA,NA,NA,NA,NA,NA,NA,NA,NA,NA,NA,NA,NA,NA,NA,NA,NA,NA,NA,NA,NA,NA,NA,NA,NA,NA,NA,NA,NA,NA,NA,NA,NA,NA,NA,NA,NA
10,"UTDEQ15",39.082588,-110.78439,1921,164327,"PR-RV-13388","PR-RV-13388","SAN RAFAEL RIVER","9/26/2017","9FDBA34C-2F81-4CA4-9E78-7EA86753D837",NA,NA,"UT",NA,NA,NA,NA,NA,NA,NA,NA,NA,NA,NA,NA,NA,312,271.0299988,61.894001,-118.2460022,50.3139992,91,414.1679993,47.3569984,7.2329998,263.2449951,2619.800049,1578.800049,2243.280029,39.0828018,3220.169922,NA,NA,NA,NA,NA,NA,NA,NA,NA,NA,NA,NA,NA,NA,NA,NA,NA,NA,NA,NA,NA,NA,NA,NA,NA,NA,NA,NA,NA,NA,NA,NA,NA,NA,NA,NA,NA,NA,NA,NA,NA,NA,NA,NA,NA,NA,NA,NA,NA,NA,NA,NA,NA,NA,NA,NA,NA,NA,NA,NA,NA,NA
10,"UTDEQ15",38.696431,-111.037952,1921,164328,"PR-RV-13644","PR-RV-13644","MUDDY CREEK","6/27/2017","4F0EF8A0-F8E0-43ED-89EC-9D6E254311D6",NA,NA,"UT",NA,NA,NA,NA,NA,NA,NA,NA,NA,NA,NA,NA,NA,317,279.3309937,69.1460037,-110.0139999,49.7350006,93,319.8469849,36.0849991,6.6929998,264.4419861,2050.73999,1562.400024,2144.389893,38.6963997,1894.089966,NA,NA,NA,NA,NA,NA,NA,NA,NA,NA,NA,NA,NA,NA,NA,NA,NA,NA,NA,NA,NA,NA,NA,NA,NA,NA,NA,NA,NA,NA,NA,NA,NA,NA,NA,NA,NA,NA,NA,NA,NA,NA,NA,NA,NA,NA,NA,NA,NA,NA,NA,NA,NA,NA,NA,NA,NA,NA,NA,NA,NA,NA
10,"UTDEQ15",39.356879,-110.484517,1921,164329,"PR-RV-13756","PR-RV-13756","PRICE RIVER","7/19/2017","CCCA0488-E74F-4AB5-A64A-CB605642C62D",NA,NA,"UT",NA,NA,NA,NA,NA,NA,NA,NA,NA,NA,NA,NA,NA,341,281.7909851,63.8689995,-121.1839981,50.2599983,102,396.3729858,44.6450005,7.0320001,264.4419861,2772.5,1489.699951,2154.060059,39.3571014,3351.310059,NA,NA,NA,NA,NA,NA,NA,NA,NA,NA,NA,NA,NA,NA,NA,NA,NA,NA,NA,NA,NA,NA,NA,NA,NA,NA,NA,NA,NA,NA,NA,NA,NA,NA,NA,NA,NA,NA,NA,NA,NA,NA,NA,NA,NA,NA,NA,NA,NA,NA,NA,NA,NA,NA,NA,NA,NA,NA,NA,NA,NA,NA
10,"UTDEQ15",38.811208,-111.192558,1921,164330,"PR-RV-13820","PR-RV-13820","MUDDY CREEK","8/8/2017","321545DD-44D4-44A8-8DFF-EE9814E63DB2",NA,NA,"UT",NA,NA,NA,NA,NA,NA,NA,NA,NA,NA,NA,NA,NA,314,260.6830139,57.0340004,-114.0619965,48.8569984,90,393.6369934,43.0859985,7.1230001,260.8039856,2650.159912,1707.300049,2349.979981,38.8111992,1096.199951,NA,NA,NA,NA,NA,NA,NA,NA,NA,NA,NA,NA,NA,NA,NA,NA,NA,NA,NA,NA,NA,NA,NA,NA,NA,NA,NA,NA,NA,NA,NA,NA,NA,NA,NA,NA,NA,NA,NA,NA,NA,NA,NA,NA,NA,NA,NA,NA,NA,NA,NA,NA,NA,NA,NA,NA,NA,NA,NA,NA,NA,NA
10,"UTDEQ15",38.593684,-110.9681361,1921,164331,"PR-RV-13900","PR-RV-13900","MUDDY CREEK","6/28/2017","CC4B0366-ED59-4100-BF07-0518DEF53B8B",NA,NA,"UT",NA,NA,NA,NA,NA,NA,NA,NA,NA,NA,NA,NA,NA,340,282.980011,71.7409973,-107.9950027,49.9249992,111,308.3160095,35.0330009,6.6040001,265.5920105,1934.599976,1434.300049,2105.379883,38.5937996,2169.229981,NA,NA,NA,NA,NA,NA,NA,NA,NA,NA,NA,NA,NA,NA,NA,NA,NA,NA,NA,NA,NA,NA,NA,NA,NA,NA,NA,NA,NA,NA,NA,NA,NA,NA,NA,NA,NA,NA,NA,NA,NA,NA,NA,NA,NA,NA,NA,NA,NA,NA,NA,NA,NA,NA,NA,NA,NA,NA,NA,NA,NA,NA
10,"UTDEQ15",38.896669,-110.373885,1921,164332,"PR-RV-13948","PR-RV-13948","SAN RAFAEL RIVER","9/12/2017","D83B57E2-58EF-4EE0-8D9E-E139FC0432AB",NA,NA,"UT",NA,NA,NA,NA,NA,NA,NA,NA,NA,NA,NA,NA,NA,356,282.6130066,70.125,-113.8379974,50.8079987,113,373.7619934,43.1259995,6.869,266.9370117,2313.129883,1285.5,2124.449951,38.8967018,4244.669922,NA,NA,NA,NA,NA,NA,NA,NA,NA,NA,NA,NA,NA,NA,NA,NA,NA,NA,NA,NA,NA,NA,NA,NA,NA,NA,NA,NA,NA,NA,NA,NA,NA,NA,NA,NA,NA,NA,NA,NA,NA,NA,NA,NA,NA,NA,NA,NA,NA,NA,NA,NA,NA,NA,NA,NA,NA,NA,NA,NA,NA,NA
10,"UTDEQ15",39.779015,-110.954668,1921,164333,"PR-SS-13036","PR-SS-13036","FORD CREEK","6/26/2017","2E3E82A1-CC26-4F50-ACD2-10B7C6157CED",NA,NA,"UT",NA,NA,NA,NA,NA,NA,NA,NA,NA,NA,NA,NA,NA,244,240.7769928,39.2220001,-121.8880005,49,41,534.8880005,59.6290016,7,254,3956.639893,2355.399902,2692.790039,39.7793007,6.32482,NA,NA,NA,NA,NA,NA,NA,NA,NA,NA,NA,NA,NA,NA,NA,NA,NA,NA,NA,NA,NA,NA,NA,NA,NA,NA,NA,NA,NA,NA,NA,NA,NA,NA,NA,NA,NA,NA,NA,NA,NA,NA,NA,NA,NA,NA,NA,NA,NA,NA,NA,NA,NA,NA,NA,NA,NA,NA,NA,NA,NA,NA
10,"UTDEQ15",39.779015,-110.954668,1921,164334,"PR-SS-13036","PR-SS-13036","FORD CREEK","8/31/2016","E176BD7E-18DF-4F3D-A950-F40A7774A0EB",NA,NA,"UT",NA,NA,NA,NA,NA,NA,NA,NA,NA,NA,NA,NA,NA,244,240.7769928,39.2220001,-121.8880005,49,41,534.8880005,59.6290016,7,254,3956.639893,2355.399902,2692.790039,39.7793007,6.32482,NA,NA,NA,NA,NA,NA,NA,NA,NA,NA,NA,NA,NA,NA,NA,NA,NA,NA,NA,NA,NA,NA,NA,NA,NA,NA,NA,NA,NA,NA,NA,NA,NA,NA,NA,NA,NA,NA,NA,NA,NA,NA,NA,NA,NA,NA,NA,NA,NA,NA,NA,NA,NA,NA,NA,NA,NA,NA,NA,NA,NA,NA
10,"UTDEQ15",39.600162,-110.300639,1921,164335,"PR-SS-13372","PR-SS-13372","RANGE CREEK","8/2/2017","7B180618-ECF6-49B0-95AF-1CE5D4857B2C",NA,NA,"UT",NA,NA,NA,NA,NA,NA,NA,NA,NA,NA,NA,NA,NA,251,246.2940063,42.882,-124.0579987,49.6590004,45,528.4110107,69.1699982,7.3330002,269,4242.419922,2574.300049,2875.810059,39.6001015,11.9862003,NA,NA,NA,NA,NA,NA,NA,NA,NA,NA,NA,NA,NA,NA,NA,NA,NA,NA,NA,NA,NA,NA,NA,NA,NA,NA,NA,NA,NA,NA,NA,NA,NA,NA,NA,NA,NA,NA,NA,NA,NA,NA,NA,NA,NA,NA,NA,NA,NA,NA,NA,NA,NA,NA,NA,NA,NA,NA,NA,NA,NA,NA
10,"UTDEQ15",39.600626,-109.16874,1921,164336,"VE-LS-14685","VE-LS-14685","BITTER CREEK","6/20/2017","6814F922-B805-41F1-A83B-1658FCA8ADD0",NA,NA,"UT",NA,NA,NA,NA,NA,NA,NA,NA,NA,NA,NA,NA,NA,297,269.4559937,65.7600021,-102.560997,52.7019997,79,473.9779968,54.2389984,6.8600001,278.04599,3309.100098,1944.400024,2338.129883,39.6006012,230.0540009,NA,NA,NA,NA,NA,NA,NA,NA,NA,NA,NA,NA,NA,NA,NA,NA,NA,NA,NA,NA,NA,NA,NA,NA,NA,NA,NA,NA,NA,NA,NA,NA,NA,NA,NA,NA,NA,NA,NA,NA,NA,NA,NA,NA,NA,NA,NA,NA,NA,NA,NA,NA,NA,NA,NA,NA,NA,NA,NA,NA,NA,NA
10,"UTDEQ15",39.508564,-109.612465,1921,164337,"VE-LS-15565","VE-LS-15565","WILLOW CREEK","9/6/2017","D77DFD1C-67F3-446D-A649-3B981355F3A3",NA,NA,"UT",NA,NA,NA,NA,NA,NA,NA,NA,NA,NA,NA,NA,NA,291,265.7019958,62.6189995,-106.7060013,52.4900017,75,445.868988,48.0940018,6.7150002,272.25,2915.399902,1882.599976,2382.479981,39.5087013,732.9439697,NA,NA,NA,NA,NA,NA,NA,NA,NA,NA,NA,NA,NA,NA,NA,NA,NA,NA,NA,NA,NA,NA,NA,NA,NA,NA,NA,NA,NA,NA,NA,NA,NA,NA,NA,NA,NA,NA,NA,NA,NA,NA,NA,NA,NA,NA,NA,NA,NA,NA,NA,NA,NA,NA,NA,NA,NA,NA,NA,NA,NA,NA
10,"UTDEQ15",40.862762,-109.139719,1921,164338,"VE-RV-10797","VE-RV-10797","VE-RV-10797:Green River","7/7/2017","85C7DCFC-E626-48E8-B8E8-A086CA018555",NA,NA,"UT",NA,NA,NA,NA,NA,NA,NA,NA,NA,NA,NA,NA,NA,324,260.8450012,34.6710014,-151.7769928,51.9420013,84,353.8720093,46.8959999,7.2490001,241.973999,2147,1636.199951,2262.469971,40.8637009,39940.80078,NA,NA,NA,NA,NA,NA,NA,NA,NA,NA,NA,NA,NA,NA,NA,NA,NA,NA,NA,NA,NA,NA,NA,NA,NA,NA,NA,NA,NA,NA,NA,NA,NA,NA,NA,NA,NA,NA,NA,NA,NA,NA,NA,NA,NA,NA,NA,NA,NA,NA,NA,NA,NA,NA,NA,NA,NA,NA,NA,NA,NA,NA
10,"UTDEQ15",39.842239,-109.62111,1921,164339,"VE-RV-12189","VE-RV-12189","WILLOW CREEK","8/14/2017","5B0C6D6D-9897-404D-BC0A-EE4FD7B6C0E2",NA,NA,"UT",NA,NA,NA,NA,NA,NA,NA,NA,NA,NA,NA,NA,NA,324,279.5299988,69.9769974,-109.3880005,53.3460007,87,393.2269897,45.1100006,6.2080002,274.052002,2507.840088,1551.099976,2203.449951,39.8422012,1475.52002,NA,NA,NA,NA,NA,NA,NA,NA,NA,NA,NA,NA,NA,NA,NA,NA,NA,NA,NA,NA,NA,NA,NA,NA,NA,NA,NA,NA,NA,NA,NA,NA,NA,NA,NA,NA,NA,NA,NA,NA,NA,NA,NA,NA,NA,NA,NA,NA,NA,NA,NA,NA,NA,NA,NA,NA,NA,NA,NA,NA,NA,NA
10,"UTDEQ15",39.94531,-109.225387,1921,164340,"VE-RV-12381","VE-RV-12381","12345 FID24653 WHITE RIVER","9/7/2017","81C6C13A-24D1-45ED-83CA-F4456AA48E3D",NA,NA,"UT",NA,NA,NA,NA,NA,NA,NA,NA,NA,NA,NA,NA,NA,338,280.7460022,62.8359985,-122.3069992,56.5859985,87,477.9679871,55.3289986,8.3970003,259.7340088,2982.439941,1491.699951,2174.479981,39.9450989,10117.59961,NA,NA,NA,NA,NA,NA,NA,NA,NA,NA,NA,NA,NA,NA,NA,NA,NA,NA,NA,NA,NA,NA,NA,NA,NA,NA,NA,NA,NA,NA,NA,NA,NA,NA,NA,NA,NA,NA,NA,NA,NA,NA,NA,NA,NA,NA,NA,NA,NA,NA,NA,NA,NA,NA,NA,NA,NA,NA,NA,NA,NA,NA
10,"UTDEQ15",39.904476,-109.666733,1921,164341,"VE-RV-12637","VE-RV-12637","WILLOW CREEK","6/21/2017","5BE35F87-8A62-4887-B835-096C544729E9",NA,NA,"UT",NA,NA,NA,NA,NA,NA,NA,NA,NA,NA,NA,NA,NA,328,280.7340088,70.4970016,-109.8820038,53.3759995,87,388.4960022,44.6759987,6.171,274.2080078,2472.98999,1507.400024,2186.169922,39.9044991,1525.160034,NA,NA,NA,NA,NA,NA,NA,NA,NA,NA,NA,NA,NA,NA,NA,NA,NA,NA,NA,NA,NA,NA,NA,NA,NA,NA,NA,NA,NA,NA,NA,NA,NA,NA,NA,NA,NA,NA,NA,NA,NA,NA,NA,NA,NA,NA,NA,NA,NA,NA,NA,NA,NA,NA,NA,NA,NA,NA,NA,NA,NA,NA
10,"UTDEQ15",39.988431,-109.415604,1921,164342,"VE-RV-13149","VE-RV-13149","12345 FID24653 WHITE RIVER","8/22/2017","F1F2CB29-181C-40C8-A43A-50AA9B2B9D14",NA,NA,"UT",NA,NA,NA,NA,NA,NA,NA,NA,NA,NA,NA,NA,NA,340,282.7990112,64.7910004,-121.1179962,56.3769989,85,461.8450012,53.5900002,8.0790005,261.8510132,2881.320068,1435.800049,2151.199951,39.9884987,11631,NA,NA,NA,NA,NA,NA,NA,NA,NA,NA,NA,NA,NA,NA,NA,NA,NA,NA,NA,NA,NA,NA,NA,NA,NA,NA,NA,NA,NA,NA,NA,NA,NA,NA,NA,NA,NA,NA,NA,NA,NA,NA,NA,NA,NA,NA,NA,NA,NA,NA,NA,NA,NA,NA,NA,NA,NA,NA,NA,NA,NA,NA
10,"UTDEQ15",39.772245,-109.92222,1921,164343,"VE-RV-13213","VE-RV-13213","GREEN RIVER","9/6/2017","BC607899-4EE8-4341-9B55-6DB077DE64E0",NA,NA,"UT",NA,NA,NA,NA,NA,NA,NA,NA,NA,NA,NA,NA,NA,330,294.3900146,74.1849976,-120.1039963,52.0279999,88,338.9689941,39.6710014,5.9390001,272.019989,2113.320068,1395.400024,2035.589966,39.7719994,5269.160156,NA,NA,NA,NA,NA,NA,NA,NA,NA,NA,NA,NA,NA,NA,NA,NA,NA,NA,NA,NA,NA,NA,NA,NA,NA,NA,NA,NA,NA,NA,NA,NA,NA,NA,NA,NA,NA,NA,NA,NA,NA,NA,NA,NA,NA,NA,NA,NA,NA,NA,NA,NA,NA,NA,NA,NA,NA,NA,NA,NA,NA,NA
10,"UTDEQ15",40.962466,-109.350351,1921,164344,"VE-SS-15337","VE-SS-15337","","8/15/2017","AD263C57-3FA8-4483-A2DA-6C63D1B65BB7",NA,NA,"UT",NA,NA,NA,NA,NA,NA,NA,NA,NA,NA,NA,NA,NA,260,258,49.5,-124.5,53,50,421,58,7,257,2586.5,2246.600098,2385.300049,40.9623985,1.10918,NA,NA,NA,NA,NA,NA,NA,NA,NA,NA,NA,NA,NA,NA,NA,NA,NA,NA,NA,NA,NA,NA,NA,NA,NA,NA,NA,NA,NA,NA,NA,NA,NA,NA,NA,NA,NA,NA,NA,NA,NA,NA,NA,NA,NA,NA,NA,NA,NA,NA,NA,NA,NA,NA,NA,NA,NA,NA,NA,NA,NA,NA
10,"UTDEQ15",40.901151,-109.32361,1921,164345,"VE-SS-19433","VE-SS-19433","GORGE CREEK","6/1/2017","D7F6EB5A-2415-4EAC-8131-A05627B8A588",NA,NA,"UT",NA,NA,NA,NA,NA,NA,NA,NA,NA,NA,NA,NA,NA,305,250.75,40.75,-135.5829926,51.1259995,76,480.75,62.4760017,8,250.5,3829.030029,1806.800049,2462.01001,40.9011002,31.1716995,NA,NA,NA,NA,NA,NA,NA,NA,NA,NA,NA,NA,NA,NA,NA,NA,NA,NA,NA,NA,NA,NA,NA,NA,NA,NA,NA,NA,NA,NA,NA,NA,NA,NA,NA,NA,NA,NA,NA,NA,NA,NA,NA,NA,NA,NA,NA,NA,NA,NA,NA,NA,NA,NA,NA,NA,NA,NA,NA,NA,NA,NA
10,"UTDEQ15",40.901151,-109.32361,1921,164346,"VE-SS-19433","VE-SS-19433","GORGE CREEK","6/24/2017","EC330DD5-C092-427F-9AC9-42C5C44F4179",NA,NA,"UT",NA,NA,NA,NA,NA,NA,NA,NA,NA,NA,NA,NA,NA,305,250.75,40.75,-135.5829926,51.1259995,76,480.75,62.4760017,8,250.5,3829.030029,1798.699951,2461.780029,40.9012985,31.1858006,NA,NA,NA,NA,NA,NA,NA,NA,NA,NA,NA,NA,NA,NA,NA,NA,NA,NA,NA,NA,NA,NA,NA,NA,NA,NA,NA,NA,NA,NA,NA,NA,NA,NA,NA,NA,NA,NA,NA,NA,NA,NA,NA,NA,NA,NA,NA,NA,NA,NA,NA,NA,NA,NA,NA,NA,NA,NA,NA,NA,NA,NA
10,"UTDEQ15",40.870777,-109.192975,1921,164347,"VE-SS-21037","VE-SS-21037","TOLIVERS CREEK","7/12/2017","A21D2D0B-4614-4EAC-AD0C-9EDA58E45B22",NA,NA,"UT",NA,NA,NA,NA,NA,NA,NA,NA,NA,NA,NA,NA,NA,313,267.2900085,51.6450005,-124.2249985,51.6170006,80,404.1610107,58.0530014,8,257.7990112,3231.120117,1798.5,2340.949951,40.8708,23.6861,NA,NA,NA,NA,NA,NA,NA,NA,NA,NA,NA,NA,NA,NA,NA,NA,NA,NA,NA,NA,NA,NA,NA,NA,NA,NA,NA,NA,NA,NA,NA,NA,NA,NA,NA,NA,NA,NA,NA,NA,NA,NA,NA,NA,NA,NA,NA,NA,NA,NA,NA,NA,NA,NA,NA,NA,NA,NA,NA,NA,NA,NA
10,"UTDEQ15",39.81127,-109.87905,1921,164348,"XE-RM-5073","XE-RM-5073","Green River","9/6/2017","31321D0B-CE13-472A-8C37-E30391025C05",NA,NA,"UT",NA,NA,NA,NA,NA,NA,NA,NA,NA,NA,NA,NA,NA,333,293.8359985,73.7160034,-120.5670013,52.0800018,89,340.9379883,39.8170013,5.9619999,271.8240051,2140.540039,1395.400024,2042.979981,39.8105011,5000.419922,NA,NA,NA,NA,NA,NA,NA,NA,NA,NA,NA,NA,NA,NA,NA,NA,NA,NA,NA,NA,NA,NA,NA,NA,NA,NA,NA,NA,NA,NA,NA,NA,NA,NA,NA,NA,NA,NA,NA,NA,NA,NA,NA,NA,NA,NA,NA,NA,NA,NA,NA,NA,NA,NA,NA,NA,NA,NA,NA,NA,NA,NA
10,"UTDEQ15",39.876502,-112.236124,1921,164349,"SR-LS-1014","SR-LS-1014","DEVIL CREEK","6/10/2017","A414C53C-6B67-445D-BAC8-7332D3171DFF",NA,NA,"UT",NA,NA,NA,NA,NA,NA,NA,NA,NA,NA,NA,NA,NA,314,299.3580017,81.1529999,-87.1790009,50.2789993,86,458.973999,54.7820015,9,268,2457.679932,1755.400024,1955.420044,39.8760986,31.8383999,NA,NA,NA,NA,NA,NA,NA,NA,NA,NA,NA,NA,NA,NA,NA,NA,NA,NA,NA,NA,NA,NA,NA,NA,NA,NA,NA,NA,NA,NA,NA,NA,NA,NA,NA,NA,NA,NA,NA,NA,NA,NA,NA,NA,NA,NA,NA,NA,NA,NA,NA,NA,NA,NA,NA,NA,NA,NA,NA,NA,NA,NA
10,"UTDEQ15",39.925267,-112.511291,1921,164350,"SR-SS-1001","SR-SS-1001","SHEEPROCK CANYON","6/9/2017","20043242-19D8-4D64-B1C4-6A1612BCDBB2",NA,NA,"UT",NA,NA,NA,NA,NA,NA,NA,NA,NA,NA,NA,NA,NA,292,271.6000061,65.5999985,-82.8000031,52,77,648.4000244,80.8820038,9,272,3153.459961,1992.900024,2346.439941,39.9253006,3.94595,NA,NA,NA,NA,NA,NA,NA,NA,NA,NA,NA,NA,NA,NA,NA,NA,NA,NA,NA,NA,NA,NA,NA,NA,NA,NA,NA,NA,NA,NA,NA,NA,NA,NA,NA,NA,NA,NA,NA,NA,NA,NA,NA,NA,NA,NA,NA,NA,NA,NA,NA,NA,NA,NA,NA,NA,NA,NA,NA,NA,NA,NA
10,"UTDEQ15",39.800684,-112.124262,1921,164351,"SR-SS-1019","SR-SS-1019","UNNAMED","6/10/2017","2D79C3FC-E939-4FFF-8C4D-4D806608E7B5",NA,NA,"UT",NA,NA,NA,NA,NA,NA,NA,NA,NA,NA,NA,NA,NA,300,287,76,-82.1999969,51,83,491.2000122,55.7999992,9,266.5,2763.820068,1857.900024,2077.629883,39.8005981,4.0735202,NA,NA,NA,NA,NA,NA,NA,NA,NA,NA,NA,NA,NA,NA,NA,NA,NA,NA,NA,NA,NA,NA,NA,NA,NA,NA,NA,NA,NA,NA,NA,NA,NA,NA,NA,NA,NA,NA,NA,NA,NA,NA,NA,NA,NA,NA,NA,NA,NA,NA,NA,NA,NA,NA,NA,NA,NA,NA,NA,NA,NA,NA
10,"UTDEQ15",39.947472,-112.669278,1921,164352,"SR-SS-1021","SR-SS-1021","DEATH CREEK","6/12/2017","FDD3F49F-3DA8-4C28-9566-D8080F5444F6",NA,NA,"UT",NA,NA,NA,NA,NA,NA,NA,NA,NA,NA,NA,NA,NA,298,291.3330078,78.3330002,-81.6660004,51.1419983,82,497.3330078,62.2849998,8,275,2636.23999,1995.900024,2212.879883,39.9474983,1.49259,NA,NA,NA,NA,NA,NA,NA,NA,NA,NA,NA,NA,NA,NA,NA,NA,NA,NA,NA,NA,NA,NA,NA,NA,NA,NA,NA,NA,NA,NA,NA,NA,NA,NA,NA,NA,NA,NA,NA,NA,NA,NA,NA,NA,NA,NA,NA,NA,NA,NA,NA,NA,NA,NA,NA,NA,NA,NA,NA,NA,NA,NA
10,"UTDEQ15",38.896236,-114.016544,1921,164353,"FI-LS-14257","FI-LS-14257","LAKE CREEK","7/26/2017","C5C2473D-1B52-46DD-926E-A6FDF027BF81",NA,NA,"UT",NA,NA,NA,NA,NA,NA,NA,NA,NA,NA,NA,NA,NA,329,302.5329895,84.848999,-93.4889984,44.105999,99,356.230011,43.4169998,6.2270002,262.4660034,2018.310059,1626.199951,2010.030029,38.8961983,3049.229981,NA,NA,NA,NA,NA,NA,NA,NA,NA,NA,NA,NA,NA,NA,NA,NA,NA,NA,NA,NA,NA,NA,NA,NA,NA,NA,NA,NA,NA,NA,NA,NA,NA,NA,NA,NA,NA,NA,NA,NA,NA,NA,NA,NA,NA,NA,NA,NA,NA,NA,NA,NA,NA,NA,NA,NA,NA,NA,NA,NA,NA,NA
10,"UTDEQ15",38.89326668,-114.02725,1921,164354,"FI-LS-26225","W3151","Big Wash","6/13/2017","D833D436-085B-4F0E-8875-B5EB4719CB5D",NA,NA,"UT",NA,NA,NA,NA,NA,NA,NA,NA,NA,NA,NA,NA,NA,331,266.1140137,66.3430023,-93.0309982,46.6730003,99,466.269989,53.8069992,7.4000001,257.6659851,2759.620117,1656.199951,2485.48999,38.8933983,78.6014023,NA,NA,NA,NA,NA,NA,NA,NA,NA,NA,NA,NA,NA,NA,NA,NA,NA,NA,NA,NA,NA,NA,NA,NA,NA,NA,NA,NA,NA,NA,NA,NA,NA,NA,NA,NA,NA,NA,NA,NA,NA,NA,NA,NA,NA,NA,NA,NA,NA,NA,NA,NA,NA,NA,NA,NA,NA,NA,NA,NA,NA,NA
10,"UTDEQ15",38.888167,-114.036853,1921,164355,"FI-LS-26545","FI-LS-26545","BIG WASH","8/29/2017","EF98DEB4-284A-4FA1-8668-B6687B1CE559",NA,NA,"UT",NA,NA,NA,NA,NA,NA,NA,NA,NA,NA,NA,NA,NA,330,264.8609924,65.7020035,-93.0849991,46.6949997,98,471.0849915,54.6949997,7.4000001,257.6659851,2804.429932,1680.199951,2504.300049,38.8883018,76.6996994,NA,NA,NA,NA,NA,NA,NA,NA,NA,NA,NA,NA,NA,NA,NA,NA,NA,NA,NA,NA,NA,NA,NA,NA,NA,NA,NA,NA,NA,NA,NA,NA,NA,NA,NA,NA,NA,NA,NA,NA,NA,NA,NA,NA,NA,NA,NA,NA,NA,NA,NA,NA,NA,NA,NA,NA,NA,NA,NA,NA,NA,NA
10,"UTDEQ15",39.543581,-112.116997,1921,164356,"FI-RV-21516","FI-RV-21516","SEVIER RIVER","10/11/2017","76225D6C-B52F-4F40-859D-520FA1E4F298",NA,NA,"UT",NA,NA,NA,NA,NA,NA,NA,NA,NA,NA,NA,NA,NA,334,273.1430054,64.2789993,-107.9229965,51.1100006,96,455.3659973,56.1679993,8.4980001,254.9689941,3033.949951,1487,2247.560059,39.543499,14795.5,NA,NA,NA,NA,NA,NA,NA,NA,NA,NA,NA,NA,NA,NA,NA,NA,NA,NA,NA,NA,NA,NA,NA,NA,NA,NA,NA,NA,NA,NA,NA,NA,NA,NA,NA,NA,NA,NA,NA,NA,NA,NA,NA,NA,NA,NA,NA,NA,NA,NA,NA,NA,NA,NA,NA,NA,NA,NA,NA,NA,NA,NA
10,"UTDEQ15",39.846451,-113.805295,1921,164357,"FI-SS-15857","FI-SS-15857","INDIAN FARM","6/14/2017","22D10B50-0A75-4EFA-B385-47B12D973CD0",NA,NA,"UT",NA,NA,NA,NA,NA,NA,NA,NA,NA,NA,NA,NA,NA,326,262.2720032,69.2269974,-80.362999,42.1759987,101,491,54.6910019,6.6659999,265.6659851,2830.899902,1606,2513.629883,39.8464012,16.1989002,NA,NA,NA,NA,NA,NA,NA,NA,NA,NA,NA,NA,NA,NA,NA,NA,NA,NA,NA,NA,NA,NA,NA,NA,NA,NA,NA,NA,NA,NA,NA,NA,NA,NA,NA,NA,NA,NA,NA,NA,NA,NA,NA,NA,NA,NA,NA,NA,NA,NA,NA,NA,NA,NA,NA,NA,NA,NA,NA,NA,NA,NA
10,"UTDEQ15",39.711604,-113.870201,1921,164358,"FI-SS-16625","FI-SS-16625",NA,"7/5/2017","10C40CBD-F7C6-4000-9EED-9AA3C497F52F",NA,NA,"UT",NA,NA,NA,NA,NA,NA,NA,NA,NA,NA,NA,NA,NA,336,265.5750122,73.211998,-76.9089966,42.6949997,100,444.8479919,52.8759995,6.4000001,263,2783.929932,1611.400024,2585.159912,39.7112007,26.5527,NA,NA,NA,NA,NA,NA,NA,NA,NA,NA,NA,NA,NA,NA,NA,NA,NA,NA,NA,NA,NA,NA,NA,NA,NA,NA,NA,NA,NA,NA,NA,NA,NA,NA,NA,NA,NA,NA,NA,NA,NA,NA,NA,NA,NA,NA,NA,NA,NA,NA,NA,NA,NA,NA,NA,NA,NA,NA,NA,NA,NA,NA
10,"UTDEQ15",39.771474,-113.939308,1921,164359,"FI-SS-17649","FI-SS-17649","TROUT CREEK","7/4/2017","536869A0-C678-4E87-B06E-C39E0DF030DC",NA,NA,"UT",NA,NA,NA,NA,NA,NA,NA,NA,NA,NA,NA,NA,NA,242,224.1000061,47.2999992,-90.5999985,41.3429985,63,640.5999756,82.3430023,8,258.5,3708.350098,2572.600098,3056.399902,39.7715988,8.46453,NA,NA,NA,NA,NA,NA,NA,NA,NA,NA,NA,NA,NA,NA,NA,NA,NA,NA,NA,NA,NA,NA,NA,NA,NA,NA,NA,NA,NA,NA,NA,NA,NA,NA,NA,NA,NA,NA,NA,NA,NA,NA,NA,NA,NA,NA,NA,NA,NA,NA,NA,NA,NA,NA,NA,NA,NA,NA,NA,NA,NA,NA
10,"UTDEQ15",41.80248,-111.307529,1921,164360,"SL-LS-20561","SL-LS-20561","LOWER LAKETOWN","6/20/2017","978F93AA-AB9C-4348-8C1C-7ACC44CB77AF",NA,NA,"UT",NA,NA,NA,NA,NA,NA,NA,NA,NA,NA,NA,NA,NA,269,262.5209961,47.5209999,-113.6809998,51.0709991,45,605.8549805,66.2170029,8.0710001,250.8569946,3131.100098,1882,2221.800049,41.8023987,55.9654007,NA,NA,NA,NA,NA,NA,NA,NA,NA,NA,NA,NA,NA,NA,NA,NA,NA,NA,NA,NA,NA,NA,NA,NA,NA,NA,NA,NA,NA,NA,NA,NA,NA,NA,NA,NA,NA,NA,NA,NA,NA,NA,NA,NA,NA,NA,NA,NA,NA,NA,NA,NA,NA,NA,NA,NA,NA,NA,NA,NA,NA,NA
10,"UTDEQ15",41.952865,-113.672914,1921,164361,"SL-LS-22225","SL-LS-22225","RAFT RIVER","7/17/2017","829D6257-3685-4E9A-99E2-508BEF74BE44",NA,NA,"UT",NA,NA,NA,NA,NA,NA,NA,NA,NA,NA,NA,NA,NA,301,276.9970093,61.368,-100.0299988,48.8380013,74,429.1119995,53.8009987,8.4180002,256.5939941,3061.290039,16914.5,20094.59961,41.9528999,380.3039856,NA,NA,NA,NA,NA,NA,NA,NA,NA,NA,NA,NA,NA,NA,NA,NA,NA,NA,NA,NA,NA,NA,NA,NA,NA,NA,NA,NA,NA,NA,NA,NA,NA,NA,NA,NA,NA,NA,NA,NA,NA,NA,NA,NA,NA,NA,NA,NA,NA,NA,NA,NA,NA,NA,NA,NA,NA,NA,NA,NA,NA,NA
10,"UTDEQ15",39.883691,-111.199657,1921,164362,"SL-LS-22332","SL-LS-22332","STARVATION CREEK","8/7/2017","8C0D6C34-C2C5-4288-A0F7-085621E7ECA2",NA,NA,"UT",NA,NA,NA,NA,NA,NA,NA,NA,NA,NA,NA,NA,NA,264,247.0209961,39.0099983,-131.2310028,49.2879982,46,569.4310303,63.7140007,8.6000004,249.3999939,4538.600098,2063.600098,2494.129883,39.8837013,78.7725983,NA,NA,NA,NA,NA,NA,NA,NA,NA,NA,NA,NA,NA,NA,NA,NA,NA,NA,NA,NA,NA,NA,NA,NA,NA,NA,NA,NA,NA,NA,NA,NA,NA,NA,NA,NA,NA,NA,NA,NA,NA,NA,NA,NA,NA,NA,NA,NA,NA,NA,NA,NA,NA,NA,NA,NA,NA,NA,NA,NA,NA,NA
10,"UTDEQ15",40.054588,-111.556411,1921,164363,"SL-RV-49980","SL-RV-49980","SPANISH FORK","10/12/2017","3B60E864-410C-4A98-BC6B-C275DD3C7E87",NA,NA,"UT",NA,NA,NA,NA,NA,NA,NA,NA,NA,NA,NA,NA,NA,315,273.7430115,57.1360016,-116.9380035,50.3479996,86,569.6350098,62.75,8.7379999,251.3609924,4079.100098,1480,2165.320068,40.0545998,1636.390015,NA,NA,NA,NA,NA,NA,NA,NA,NA,NA,NA,NA,NA,NA,NA,NA,NA,NA,NA,NA,NA,NA,NA,NA,NA,NA,NA,NA,NA,NA,NA,NA,NA,NA,NA,NA,NA,NA,NA,NA,NA,NA,NA,NA,NA,NA,NA,NA,NA,NA,NA,NA,NA,NA,NA,NA,NA,NA,NA,NA,NA,NA
10,"UTDEQ15",41.95484,-113.901747,1921,164364,"SL-SS-15137","SL-SS-15137","POLE CREEK","8/24/2017","B1DAA014-20DB-4AE0-813C-9D960376939E",NA,NA,"UT",NA,NA,NA,NA,NA,NA,NA,NA,NA,NA,NA,NA,NA,266,250.9440002,46.7770004,-100.2220001,52.8540001,59,586,70.5270004,9,253.3329926,3362.070068,18520.09961,21745.59961,41.9548988,13.9157,NA,NA,NA,NA,NA,NA,NA,NA,NA,NA,NA,NA,NA,NA,NA,NA,NA,NA,NA,NA,NA,NA,NA,NA,NA,NA,NA,NA,NA,NA,NA,NA,NA,NA,NA,NA,NA,NA,NA,NA,NA,NA,NA,NA,NA,NA,NA,NA,NA,NA,NA,NA,NA,NA,NA,NA,NA,NA,NA,NA,NA,NA
10,"UTDEQ15",41.693133,-113.788174,1921,164365,"SL-SS-15825","SL-SS-15825","NORTH FORK RED BUTTE CREEK","6/26/2017","9D27A8A1-9921-4E25-A776-B01DE06B730A",NA,NA,"UT",NA,NA,NA,NA,NA,NA,NA,NA,NA,NA,NA,NA,NA,264,238.25,33.75,-109.875,43.0900002,54,658,82.9089966,8.5,251,2925.080078,1966.400024,2346.909912,41.6930008,5.4509602,NA,NA,NA,NA,NA,NA,NA,NA,NA,NA,NA,NA,NA,NA,NA,NA,NA,NA,NA,NA,NA,NA,NA,NA,NA,NA,NA,NA,NA,NA,NA,NA,NA,NA,NA,NA,NA,NA,NA,NA,NA,NA,NA,NA,NA,NA,NA,NA,NA,NA,NA,NA,NA,NA,NA,NA,NA,NA,NA,NA,NA,NA
10,"UTDEQ15",41.958401,-113.955226,1921,164366,"SL-SS-16161","SL-SS-16161",NA,"6/27/2017","24E7CA0F-2B24-47A5-B51E-F47E9EE0527C",NA,NA,"UT",NA,NA,NA,NA,NA,NA,NA,NA,NA,NA,NA,NA,NA,293,267.2770081,60.8880005,-87.7220001,50.8069992,77,452.7219849,51.8460007,8.3330002,258,3054.280029,16262,19602.59961,41.9583015,12.8239002,NA,NA,NA,NA,NA,NA,NA,NA,NA,NA,NA,NA,NA,NA,NA,NA,NA,NA,NA,NA,NA,NA,NA,NA,NA,NA,NA,NA,NA,NA,NA,NA,NA,NA,NA,NA,NA,NA,NA,NA,NA,NA,NA,NA,NA,NA,NA,NA,NA,NA,NA,NA,NA,NA,NA,NA,NA,NA,NA,NA,NA,NA
10,"UTDEQ15",40.565012,-112.740884,1921,164367,"SL-SS-16353","SL-SS-16353",NA,"6/27/2017","38D0FEAF-1201-4E0C-A58C-0355B40D5260",NA,NA,"UT",NA,NA,NA,NA,NA,NA,NA,NA,NA,NA,NA,NA,NA,338,327,102,-76,51.8569984,103,363,51.8569984,8,276,2366.719971,1317,1448.609985,40.5648994,1.6055,NA,NA,NA,NA,NA,NA,NA,NA,NA,NA,NA,NA,NA,NA,NA,NA,NA,NA,NA,NA,NA,NA,NA,NA,NA,NA,NA,NA,NA,NA,NA,NA,NA,NA,NA,NA,NA,NA,NA,NA,NA,NA,NA,NA,NA,NA,NA,NA,NA,NA,NA,NA,NA,NA,NA,NA,NA,NA,NA,NA,NA,NA
10,"UTDEQ15",41.778525,-111.34085,1921,164368,"SL-SS-16465","SL-SS-16465","LAKETOWN","10/3/2017","5FE2DAFB-1424-4C52-A811-2C56C6EFA414",NA,NA,"UT",NA,NA,NA,NA,NA,NA,NA,NA,NA,NA,NA,NA,NA,264,260.5400085,46.7019997,-110.4049988,52.4119987,52,665.2160034,75.9810028,9.1420002,249.4279938,3508.120117,2024,2291.899902,41.7783012,27.4248009,NA,NA,NA,NA,NA,NA,NA,NA,NA,NA,NA,NA,NA,NA,NA,NA,NA,NA,NA,NA,NA,NA,NA,NA,NA,NA,NA,NA,NA,NA,NA,NA,NA,NA,NA,NA,NA,NA,NA,NA,NA,NA,NA,NA,NA,NA,NA,NA,NA,NA,NA,NA,NA,NA,NA,NA,NA,NA,NA,NA,NA,NA
10,"UTDEQ15",39.816498,-110.913055,1921,164369,"SL-SS-17132","SL-SS-17132","HORSE CREEK","9/14/2017","994ADCE0-C463-4F39-ABBE-D9ED7531989A",NA,NA,"UT",NA,NA,NA,NA,NA,NA,NA,NA,NA,NA,NA,NA,NA,266,256.1870117,44.0620003,-130.4369965,49.0519981,46,514.875,56.0519981,7,257.6659851,2833.719971,2163.5,2437.350098,39.8163986,14.6387997,NA,NA,NA,NA,NA,NA,NA,NA,NA,NA,NA,NA,NA,NA,NA,NA,NA,NA,NA,NA,NA,NA,NA,NA,NA,NA,NA,NA,NA,NA,NA,NA,NA,NA,NA,NA,NA,NA,NA,NA,NA,NA,NA,NA,NA,NA,NA,NA,NA,NA,NA,NA,NA,NA,NA,NA,NA,NA,NA,NA,NA,NA
10,"UTDEQ15",41.714568,-111.274943,1921,164370,"SL-SS-17489","SL-SS-17489","MIDDLE OTTER CREEK","10/4/2017","22BD564C-33B2-492D-BF8D-BAB94C74A67B",NA,NA,"UT",NA,NA,NA,NA,NA,NA,NA,NA,NA,NA,NA,NA,NA,273,267.5,43,-135.25,51,40,533.5,58.2099991,8,250,2914.5,2017.800049,2192.979981,41.7144012,4.14609,NA,NA,NA,NA,NA,NA,NA,NA,NA,NA,NA,NA,NA,NA,NA,NA,NA,NA,NA,NA,NA,NA,NA,NA,NA,NA,NA,NA,NA,NA,NA,NA,NA,NA,NA,NA,NA,NA,NA,NA,NA,NA,NA,NA,NA,NA,NA,NA,NA,NA,NA,NA,NA,NA,NA,NA,NA,NA,NA,NA,NA,NA
10,"UTDEQ15",41.811127,-111.186076,1921,164371,"SL-SS-18188","SL-SS-18188","SOUTH FORK SIXMILE CREEK","9/27/2017","F0E23CCF-CE4C-451F-AD58-7C5298578BF4",NA,NA,"UT",NA,NA,NA,NA,NA,NA,NA,NA,NA,NA,NA,NA,NA,274,270.7999878,40.2000008,-136.6000061,48.3569984,39,435,48.0709991,7,247,2182.290039,2015,2123.02002,41.8109016,3.8229799,NA,NA,NA,NA,NA,NA,NA,NA,NA,NA,NA,NA,NA,NA,NA,NA,NA,NA,NA,NA,NA,NA,NA,NA,NA,NA,NA,NA,NA,NA,NA,NA,NA,NA,NA,NA,NA,NA,NA,NA,NA,NA,NA,NA,NA,NA,NA,NA,NA,NA,NA,NA,NA,NA,NA,NA,NA,NA,NA,NA,NA,NA
10,"UTDEQ15",41.50576668,-111.3022167,1921,164372,"W3012","W3012","Birch Creek","8/8/2017","C79C0FF8-E461-4C21-B9D6-150FBEE01C5A",NA,NA,"UT",NA,NA,NA,NA,NA,NA,NA,NA,NA,NA,NA,NA,NA,263,248.1549988,39.5509987,-124.0339966,52.3650017,38,704.7410278,80.7350006,9.3330002,246.1109924,3328.310059,2066.100098,2353.030029,41.5056992,47.2938004,NA,NA,NA,NA,NA,NA,NA,NA,NA,NA,NA,NA,NA,NA,NA,NA,NA,NA,NA,NA,NA,NA,NA,NA,NA,NA,NA,NA,NA,NA,NA,NA,NA,NA,NA,NA,NA,NA,NA,NA,NA,NA,NA,NA,NA,NA,NA,NA,NA,NA,NA,NA,NA,NA,NA,NA,NA,NA,NA,NA,NA,NA
10,"UTDEQ15",41.50576668,-111.3022167,1921,164373,"W3012","W3012","Birch Creek","7/24/2017","EFA303DB-AABF-4B86-BC05-7AFD3EEBBFEE",NA,NA,"UT",NA,NA,NA,NA,NA,NA,NA,NA,NA,NA,NA,NA,NA,263,248.1549988,39.5509987,-124.0339966,52.3650017,38,704.7410278,80.7350006,9.3330002,246.1109924,3328.310059,2066.100098,2353.030029,41.5057983,47.2938004,NA,NA,NA,NA,NA,NA,NA,NA,NA,NA,NA,NA,NA,NA,NA,NA,NA,NA,NA,NA,NA,NA,NA,NA,NA,NA,NA,NA,NA,NA,NA,NA,NA,NA,NA,NA,NA,NA,NA,NA,NA,NA,NA,NA,NA,NA,NA,NA,NA,NA,NA,NA,NA,NA,NA,NA,NA,NA,NA,NA,NA,NA
10,"UTDEQ15",41.57709999,-111.3378833,1921,164374,"W303O2","W303O2","Big Creek","9/28/2017","48A81737-D52D-4F7B-A205-116F95F4B936",NA,NA,"UT",NA,NA,NA,NA,NA,NA,NA,NA,NA,NA,NA,NA,NA,263,250.9029999,42.0159988,-120.0479965,52.5890007,34,714.6450195,78.5,9.5,245.8999939,3557.580078,2051.699951,2339.820068,41.5772018,50.6208,NA,NA,NA,NA,NA,NA,NA,NA,NA,NA,NA,NA,NA,NA,NA,NA,NA,NA,NA,NA,NA,NA,NA,NA,NA,NA,NA,NA,NA,NA,NA,NA,NA,NA,NA,NA,NA,NA,NA,NA,NA,NA,NA,NA,NA,NA,NA,NA,NA,NA,NA,NA,NA,NA,NA,NA,NA,NA,NA,NA,NA,NA
10,"UTDEQ15",41.72501666,-111.2473333,1921,164375,"W308O2","W308O2","Otter Creek","9/26/2017","09BA15D0-A7AF-4D2F-8AF7-0E46C47DD910",NA,NA,"UT",NA,NA,NA,NA,NA,NA,NA,NA,NA,NA,NA,NA,NA,273,263.7789917,43.7280006,-123.2200012,51.2589989,40,606.7960205,66.7900009,8.6660004,249.3329926,3099.889893,1971.800049,2235.590088,41.7252007,45.8741989,NA,NA,NA,NA,NA,NA,NA,NA,NA,NA,NA,NA,NA,NA,NA,NA,NA,NA,NA,NA,NA,NA,NA,NA,NA,NA,NA,NA,NA,NA,NA,NA,NA,NA,NA,NA,NA,NA,NA,NA,NA,NA,NA,NA,NA,NA,NA,NA,NA,NA,NA,NA,NA,NA,NA,NA,NA,NA,NA,NA,NA,NA
10,"UTDEQ15",41.70236,-111.25722,1921,164376,"WD-TR-1027","SFOTTER-1","South Fork of Otter Creek","10/18/2017","5ADA37E4-1085-44F6-AB32-A572CDE7BC4B",NA,NA,"UT",NA,NA,NA,NA,NA,NA,NA,NA,NA,NA,NA,NA,NA,275,267.3070068,42,-135.9230042,51.0730019,38,534.0759888,54.512001,7.3330002,248.6660004,2802.77002,1979.5,2167.929932,41.7022018,10.4187002,NA,NA,NA,NA,NA,NA,NA,NA,NA,NA,NA,NA,NA,NA,NA,NA,NA,NA,NA,NA,NA,NA,NA,NA,NA,NA,NA,NA,NA,NA,NA,NA,NA,NA,NA,NA,NA,NA,NA,NA,NA,NA,NA,NA,NA,NA,NA,NA,NA,NA,NA,NA,NA,NA,NA,NA,NA,NA,NA,NA,NA,NA
10,"UTDEQ15",41.715035,-111.263858,1921,164377,"WD-TR-1214","WD-TR-1214","MIDDLE OTTER","10/19/2017","4B3F12D1-1C29-4C13-8E92-468E4466A183",NA,NA,"UT",NA,NA,NA,NA,NA,NA,NA,NA,NA,NA,NA,NA,NA,274,269.0899963,41.9090004,-138.4539948,50.7249985,39,508.1809998,54.9249992,7.3330002,248.6660004,2757.780029,1995.099976,2152.77002,41.7150002,9.22754,NA,NA,NA,NA,NA,NA,NA,NA,NA,NA,NA,NA,NA,NA,NA,NA,NA,NA,NA,NA,NA,NA,NA,NA,NA,NA,NA,NA,NA,NA,NA,NA,NA,NA,NA,NA,NA,NA,NA,NA,NA,NA,NA,NA,NA,NA,NA,NA,NA,NA,NA,NA,NA,NA,NA,NA,NA,NA,NA,NA,NA,NA
10,"UTDEQ15",41.70223,-111.258641,1921,164378,"WD-TR-1359","WD-TR-1359","SOUTH FORK OTTER","10/17/2017","2B935AC4-7AD7-452B-AF06-1508EB712FD8",NA,NA,"UT",NA,NA,NA,NA,NA,NA,NA,NA,NA,NA,NA,NA,NA,275,267.3070068,42,-135.9230042,51.0730019,38,534.0759888,54.512001,7.3330002,248.6660004,2802.77002,1979.5,2167.929932,41.7020988,10.4187002,NA,NA,NA,NA,NA,NA,NA,NA,NA,NA,NA,NA,NA,NA,NA,NA,NA,NA,NA,NA,NA,NA,NA,NA,NA,NA,NA,NA,NA,NA,NA,NA,NA,NA,NA,NA,NA,NA,NA,NA,NA,NA,NA,NA,NA,NA,NA,NA,NA,NA,NA,NA,NA,NA,NA,NA,NA,NA,NA,NA,NA,NA
10,"UTDEQ15",40.565012,-112.740884,1921,164379,"SL-SS-16353","SL-SS-16353",NA,"5/20/2017","1359D30F-5567-410F-85AE-1DA20FB58EA2",NA,NA,"UT",NA,NA,NA,NA,NA,NA,NA,NA,NA,NA,NA,NA,NA,338,327,102,-76,51.8569984,103,363,51.8569984,8,276,2366.719971,1317,1448.609985,40.5648994,1.6055,NA,NA,NA,NA,NA,NA,NA,NA,NA,NA,NA,NA,NA,NA,NA,NA,NA,NA,NA,NA,NA,NA,NA,NA,NA,NA,NA,NA,NA,NA,NA,NA,NA,NA,NA,NA,NA,NA,NA,NA,NA,NA,NA,NA,NA,NA,NA,NA,NA,NA,NA,NA,NA,NA,NA,NA,NA,NA,NA,NA,NA,NA
10,"UTDEQ15",38.6987991,-109.0780029,1932,164678,"CO-SS-9419","CO-SS-9419","CO-SS-9419: Beaver Creek","7/18/2017","D791DB2F-D210-4957-9A9A-3D63A670CFBD",NA,NA,"UT",NA,NA,NA,NA,NA,NA,NA,NA,NA,NA,NA,NA,NA,310,275.4719849,75.3349991,-101.4860001,51.9080009,99,588.2050171,73.1050034,7.7909999,269.3330078,3143.340088,1475.900024,2370.790039,38.6987991,121.8509979,NA,NA,NA,NA,NA,NA,NA,NA,NA,NA,NA,NA,NA,NA,NA,NA,NA,NA,NA,NA,NA,NA,NA,NA,NA,NA,NA,NA,NA,NA,NA,NA,NA,NA,NA,NA,NA,NA,NA,NA,NA,NA,NA,NA,NA,NA,NA,NA,NA,NA,NA,NA,NA,NA,NA,NA,NA,NA,NA,NA,NA,NA
10,"UTDEQ15",38.5513,-109.4300003,1932,164679,"CO-SS-9426","CO-SS-9426","CO-SS-9426: North Fork Mill Creek","9/5/2017","6E9FE294-EE1D-4B85-B862-8263B16F7899",NA,NA,"UT",NA,NA,NA,NA,NA,NA,NA,NA,NA,NA,NA,NA,NA,327,273.6029968,79.2220001,-89.9680023,52.1769981,109,563.7769775,67.7399979,7.0999999,274.2999878,3201.570068,1551.400024,2244.149902,38.5513,52.3431015,NA,NA,NA,NA,NA,NA,NA,NA,NA,NA,NA,NA,NA,NA,NA,NA,NA,NA,NA,NA,NA,NA,NA,NA,NA,NA,NA,NA,NA,NA,NA,NA,NA,NA,NA,NA,NA,NA,NA,NA,NA,NA,NA,NA,NA,NA,NA,NA,NA,NA,NA,NA,NA,NA,NA,NA,NA,NA,NA,NA,NA,NA
10,"UTDEQ15",38.6702995,-109.4489975,1932,164680,"CY-TR-1012","CASTC-01","Castle Creek, just above diversion","7/20/2017","00DD65CF-7067-48F4-AB4E-A2676EBE13A3",NA,NA,"UT",NA,NA,NA,NA,NA,NA,NA,NA,NA,NA,NA,NA,NA,348,275.5480042,77.0299988,-96.439003,52,122,567.3430176,70.776001,8.0369997,271.9620056,2927.560059,1265.900024,2137.919922,38.6702995,137.9250031,NA,NA,NA,NA,NA,NA,NA,NA,NA,NA,NA,NA,NA,NA,NA,NA,NA,NA,NA,NA,NA,NA,NA,NA,NA,NA,NA,NA,NA,NA,NA,NA,NA,NA,NA,NA,NA,NA,NA,NA,NA,NA,NA,NA,NA,NA,NA,NA,NA,NA,NA,NA,NA,NA,NA,NA,NA,NA,NA,NA,NA,NA
10,"UTDEQ15",38.5974998,-109.5149994,1932,164681,"CY-TR-1028","CY-TR-1028","NEGRO BILL CANYON","7/7/2017","A6DF8069-41E0-4373-8D7F-47146E2D8475",NA,NA,"UT",NA,NA,NA,NA,NA,NA,NA,NA,NA,NA,NA,NA,NA,350,326,108.9089966,-82.8359985,52.1049995,122,329.4179993,46.2449989,6.777,282.5549927,1616.569946,1263.699951,1668.319946,38.5974998,42.571701,NA,NA,NA,NA,NA,NA,NA,NA,NA,NA,NA,NA,NA,NA,NA,NA,NA,NA,NA,NA,NA,NA,NA,NA,NA,NA,NA,NA,NA,NA,NA,NA,NA,NA,NA,NA,NA,NA,NA,NA,NA,NA,NA,NA,NA,NA,NA,NA,NA,NA,NA,NA,NA,NA,NA,NA,NA,NA,NA,NA,NA,NA
10,"UTDEQ15",37.4976997,-109.663002,1932,164682,"CY-TR-1221","CY-TR-1221","MULE CANYON","8/9/2017","F977C55E-BFDF-4145-A1ED-8256530F7A84",NA,NA,"UT",NA,NA,NA,NA,NA,NA,NA,NA,NA,NA,NA,NA,NA,347,322.6019897,104.9550018,-79.1320038,52.1910019,127,283.9849854,38.6819992,6.1659999,281.6659851,1888.410034,1467.900024,1880.109985,37.4976997,57.0271988,NA,NA,NA,NA,NA,NA,NA,NA,NA,NA,NA,NA,NA,NA,NA,NA,NA,NA,NA,NA,NA,NA,NA,NA,NA,NA,NA,NA,NA,NA,NA,NA,NA,NA,NA,NA,NA,NA,NA,NA,NA,NA,NA,NA,NA,NA,NA,NA,NA,NA,NA,NA,NA,NA,NA,NA,NA,NA,NA,NA,NA,NA
10,"UTDEQ15",38.6088982,-109.5329971,1932,164683,"CY-TR-1319","495715","Negro Bill Canyon","7/26/2017","BC23CBBE-CA03-4AB8-985D-567DCFA49FA6",NA,NA,"UT",NA,NA,NA,NA,NA,NA,NA,NA,NA,NA,NA,NA,NA,357,330.8150024,111.3069992,-82.7529984,52.0849991,125,315.1839905,44.6189995,6.5,284.7000122,1587.540039,1214.400024,1620.01001,38.6088982,51.8160019,NA,NA,NA,NA,NA,NA,NA,NA,NA,NA,NA,NA,NA,NA,NA,NA,NA,NA,NA,NA,NA,NA,NA,NA,NA,NA,NA,NA,NA,NA,NA,NA,NA,NA,NA,NA,NA,NA,NA,NA,NA,NA,NA,NA,NA,NA,NA,NA,NA,NA,NA,NA,NA,NA,NA,NA,NA,NA,NA,NA,NA,NA
10,"UTDEQ15",38.6088982,-109.5329971,1932,164684,"CY-TR-1319","495715","Negro Bill Canyon","7/10/2017","E72771E6-AB55-4C79-BCE2-50E5F133DAB0",NA,NA,"UT",NA,NA,NA,NA,NA,NA,NA,NA,NA,NA,NA,NA,NA,357,330.8150024,111.3069992,-82.7529984,52.0849991,125,315.1839905,44.6189995,6.5,284.7000122,1587.540039,1214.400024,1620.01001,38.6088982,51.8160019,NA,NA,NA,NA,NA,NA,NA,NA,NA,NA,NA,NA,NA,NA,NA,NA,NA,NA,NA,NA,NA,NA,NA,NA,NA,NA,NA,NA,NA,NA,NA,NA,NA,NA,NA,NA,NA,NA,NA,NA,NA,NA,NA,NA,NA,NA,NA,NA,NA,NA,NA,NA,NA,NA,NA,NA,NA,NA,NA,NA,NA,NA
10,"UTDEQ15",37.3857994,-109.6689987,1932,164685,"CY-TR-1331","CY-TR-1331","FISH CREEK","8/14/2017","5A2CD662-49EA-462A-AC7F-CA49E4247E7D",NA,NA,"UT",NA,NA,NA,NA,NA,NA,NA,NA,NA,NA,NA,NA,NA,352,325.0580139,106.8420029,-78.913002,52.1969986,127,275.946991,38.7120018,6.0089998,281.2659912,1935.52002,1385.300049,1852.109985,37.3857994,526.4390259,NA,NA,NA,NA,NA,NA,NA,NA,NA,NA,NA,NA,NA,NA,NA,NA,NA,NA,NA,NA,NA,NA,NA,NA,NA,NA,NA,NA,NA,NA,NA,NA,NA,NA,NA,NA,NA,NA,NA,NA,NA,NA,NA,NA,NA,NA,NA,NA,NA,NA,NA,NA,NA,NA,NA,NA,NA,NA,NA,NA,NA,NA
10,"UTDEQ15",37.5477982,-109.677002,1932,164686,"CY-TR-1477","LWARCHCYN","Arch Canyon, Lower","7/31/2017","42C33A8D-D331-4203-8551-E4B911604D5E",NA,NA,"UT",NA,NA,NA,NA,NA,NA,NA,NA,NA,NA,NA,NA,NA,343,303.2860107,91.8519974,-83.3639984,52.3860016,122,345.4649963,49.651001,6.777,278.7770081,2710.600098,1530.300049,2138.560059,37.5477982,105.8980026,NA,NA,NA,NA,NA,NA,NA,NA,NA,NA,NA,NA,NA,NA,NA,NA,NA,NA,NA,NA,NA,NA,NA,NA,NA,NA,NA,NA,NA,NA,NA,NA,NA,NA,NA,NA,NA,NA,NA,NA,NA,NA,NA,NA,NA,NA,NA,NA,NA,NA,NA,NA,NA,NA,NA,NA,NA,NA,NA,NA,NA,NA
10,"UTDEQ15",37.5477982,-109.677002,1932,164687,"CY-TR-1477","4953193","Arch Creek One Mile upstream of Canyon Mouth","8/15/2017","82EB06AD-705F-40B5-87F0-6EBFE4220D92",NA,NA,"UT",NA,NA,NA,NA,NA,NA,NA,NA,NA,NA,NA,NA,NA,343,303.2860107,91.8519974,-83.3639984,52.3860016,122,345.4649963,49.651001,6.777,278.7770081,2710.600098,1530.300049,2138.560059,37.5477982,105.8980026,NA,NA,NA,NA,NA,NA,NA,NA,NA,NA,NA,NA,NA,NA,NA,NA,NA,NA,NA,NA,NA,NA,NA,NA,NA,NA,NA,NA,NA,NA,NA,NA,NA,NA,NA,NA,NA,NA,NA,NA,NA,NA,NA,NA,NA,NA,NA,NA,NA,NA,NA,NA,NA,NA,NA,NA,NA,NA,NA,NA,NA,NA
10,"UTDEQ15",38.3894005,-109.5299988,1932,164688,"MB-LS-10770","MB-LS-10770","KANE CREEK","8/22/2017","FCF9C36F-6D53-4BBD-8F78-1C6057D95C78",NA,NA,"UT",NA,NA,NA,NA,NA,NA,NA,NA,NA,NA,NA,NA,NA,341,310.9639893,95.9599991,-90.7959976,52.6739998,113,350.0400085,47.8919983,6.5599999,275.6090088,2060.979981,1357.800049,1885.089966,38.3894005,211.173996,NA,NA,NA,NA,NA,NA,NA,NA,NA,NA,NA,NA,NA,NA,NA,NA,NA,NA,NA,NA,NA,NA,NA,NA,NA,NA,NA,NA,NA,NA,NA,NA,NA,NA,NA,NA,NA,NA,NA,NA,NA,NA,NA,NA,NA,NA,NA,NA,NA,NA,NA,NA,NA,NA,NA,NA,NA,NA,NA,NA,NA,NA
10,"UTDEQ15",38.5643005,-109.5070038,1932,164689,"MB-LS-11789","MB-LS-11789","MILL CREEK","6/13/2017","8B7BF731-E80E-4842-9BDE-674E6F4EF82F",NA,NA,"UT",NA,NA,NA,NA,NA,NA,NA,NA,NA,NA,NA,NA,NA,353,276.7940063,78.3199997,-94.6920013,52.1459999,122,560.2089844,70.7870026,7.8569999,272.3999939,2836.919922,1303.5,2192.580078,38.5643005,192.0919952,NA,NA,NA,NA,NA,NA,NA,NA,NA,NA,NA,NA,NA,NA,NA,NA,NA,NA,NA,NA,NA,NA,NA,NA,NA,NA,NA,NA,NA,NA,NA,NA,NA,NA,NA,NA,NA,NA,NA,NA,NA,NA,NA,NA,NA,NA,NA,NA,NA,NA,NA,NA,NA,NA,NA,NA,NA,NA,NA,NA,NA,NA
10,"UTDEQ15",39.2123985,-109.4469986,1932,164690,"MB-LS-12493","MB-LS-12493","DIAMOND CREEK","9/18/2017","234D314B-FD52-4F90-84E1-4F57FB273442",NA,NA,"UT",NA,NA,NA,NA,NA,NA,NA,NA,NA,NA,NA,NA,NA,316,285.9259949,76.4100037,-101.3570023,51.6759987,97,394,42.4770012,6.5710001,280.3569946,2668.699951,1744.199951,2202.659912,39.2123985,78.2693024,NA,NA,NA,NA,NA,NA,NA,NA,NA,NA,NA,NA,NA,NA,NA,NA,NA,NA,NA,NA,NA,NA,NA,NA,NA,NA,NA,NA,NA,NA,NA,NA,NA,NA,NA,NA,NA,NA,NA,NA,NA,NA,NA,NA,NA,NA,NA,NA,NA,NA,NA,NA,NA,NA,NA,NA,NA,NA,NA,NA,NA,NA
10,"UTDEQ15",38.3809013,-109.4940033,1932,164691,"MB-LS-14866","MB-LS-14866","KANE CREEK","9/21/2017","F3E8D1B3-7470-425C-A58E-156BCF96A912",NA,NA,"UT",NA,NA,NA,NA,NA,NA,NA,NA,NA,NA,NA,NA,NA,336,307.6400146,93.987999,-91.3479996,52.7019997,110,363.6239929,47.8209991,6.5749998,275.4500122,2079.52002,1430.300049,1893.599976,38.3809013,205.201004,NA,NA,NA,NA,NA,NA,NA,NA,NA,NA,NA,NA,NA,NA,NA,NA,NA,NA,NA,NA,NA,NA,NA,NA,NA,NA,NA,NA,NA,NA,NA,NA,NA,NA,NA,NA,NA,NA,NA,NA,NA,NA,NA,NA,NA,NA,NA,NA,NA,NA,NA,NA,NA,NA,NA,NA,NA,NA,NA,NA,NA,NA
10,"UTDEQ15",39.2615013,-110.0599976,1932,164692,"MB-RV-10236","CO-RO-9436","CO-RO-9436: Green River","9/10/2017","28992A3A-94B1-4112-9A9D-EF2010EDA498",NA,NA,"UT",NA,NA,NA,NA,NA,NA,NA,NA,NA,NA,NA,NA,NA,349,271.2799988,47.9749985,-139.3450012,53.4700012,113,412.2070007,50.526001,7.6440001,251.4859924,2539.100098,1268,2207.969971,39.2615013,99561.89844,NA,NA,NA,NA,NA,NA,NA,NA,NA,NA,NA,NA,NA,NA,NA,NA,NA,NA,NA,NA,NA,NA,NA,NA,NA,NA,NA,NA,NA,NA,NA,NA,NA,NA,NA,NA,NA,NA,NA,NA,NA,NA,NA,NA,NA,NA,NA,NA,NA,NA,NA,NA,NA,NA,NA,NA,NA,NA,NA,NA,NA,NA
10,"UTDEQ15",38.8163986,-109.2590027,1932,164693,"MB-RV-10514","MB-RV-10514","DOLORES RIVER","8/29/2017","5F9F4389-8B76-4594-A4AF-997E64361078",NA,NA,"UT",NA,NA,NA,NA,NA,NA,NA,NA,NA,NA,NA,NA,NA,365,274.3420105,68.810997,-110.5889969,51.6749992,120,537.5609741,62.0890007,9.3109999,262.7539978,3253.209961,545,2334.790039,38.8163986,11979.2002,NA,NA,NA,NA,NA,NA,NA,NA,NA,NA,NA,NA,NA,NA,NA,NA,NA,NA,NA,NA,NA,NA,NA,NA,NA,NA,NA,NA,NA,NA,NA,NA,NA,NA,NA,NA,NA,NA,NA,NA,NA,NA,NA,NA,NA,NA,NA,NA,NA,NA,NA,NA,NA,NA,NA,NA,NA,NA,NA,NA,NA,NA
10,"UTDEQ15",39.2136993,-110.0759964,1932,164694,"MB-RV-1200","MB-RV-1200","COLORADO RIVER","9/10/2017","03C80963-8D79-47C5-B9EE-B56969DBD7D6",NA,NA,"UT",NA,NA,NA,NA,NA,NA,NA,NA,NA,NA,NA,NA,NA,344,271.3779907,48.0979996,-139.2120056,53.4659996,114,412.019989,50.4949989,7.6399999,251.6009979,2537.719971,1257.400024,2204.719971,39.2136993,99845.29688,NA,NA,NA,NA,NA,NA,NA,NA,NA,NA,NA,NA,NA,NA,NA,NA,NA,NA,NA,NA,NA,NA,NA,NA,NA,NA,NA,NA,NA,NA,NA,NA,NA,NA,NA,NA,NA,NA,NA,NA,NA,NA,NA,NA,NA,NA,NA,NA,NA,NA,NA,NA,NA,NA,NA,NA,NA,NA,NA,NA,NA,NA
10,"UTDEQ15",38.7557983,-109.3359985,1932,164695,"MB-RV-1202","MB-RV-1202","COLORADO RIVER","9/25/2017","F3EE8268-C74C-4FBC-B9BD-09D0C5CFBDD6",NA,NA,"UT",NA,NA,NA,NA,NA,NA,NA,NA,NA,NA,NA,NA,NA,360,258.8479919,51.9529991,-125.7129974,53.2820015,121,536.440979,61.9830017,9.6549997,255.1900024,3409.219971,545,2213.219971,38.7557983,62157.10156,NA,NA,NA,NA,NA,NA,NA,NA,NA,NA,NA,NA,NA,NA,NA,NA,NA,NA,NA,NA,NA,NA,NA,NA,NA,NA,NA,NA,NA,NA,NA,NA,NA,NA,NA,NA,NA,NA,NA,NA,NA,NA,NA,NA,NA,NA,NA,NA,NA,NA,NA,NA,NA,NA,NA,NA,NA,NA,NA,NA,NA,NA
10,"UTDEQ15",38.7112999,-109.3259964,1932,164696,"MB-SS-10002","MB-SS-10002","ONION CREEK","6/12/2017","106DEDAC-AE78-44C0-8C14-ACF6D91111E0",NA,NA,"UT",NA,NA,NA,NA,NA,NA,NA,NA,NA,NA,NA,NA,NA,340,314.4460144,101.9459991,-84.7850037,51.5400009,117,372.6600037,50.887001,7,277.1109924,1695.780029,1342.199951,1756.52002,38.7112999,46.3404999,NA,NA,NA,NA,NA,NA,NA,NA,NA,NA,NA,NA,NA,NA,NA,NA,NA,NA,NA,NA,NA,NA,NA,NA,NA,NA,NA,NA,NA,NA,NA,NA,NA,NA,NA,NA,NA,NA,NA,NA,NA,NA,NA,NA,NA,NA,NA,NA,NA,NA,NA,NA,NA,NA,NA,NA,NA,NA,NA,NA,NA,NA
10,"UTDEQ15",38.4835014,-109.4079971,1932,164697,"MB-SS-10066","PFC:UT-04","Mill Creek upstream from diversion","6/8/2017","ECBC0186-CD2D-4151-9CE8-887087F7A1AE",NA,NA,"UT",NA,NA,NA,NA,NA,NA,NA,NA,NA,NA,NA,NA,NA,324,243.1349945,55.6539993,-106.1849976,52.1380005,105,741.5180054,94.262001,9.6149998,265.230011,3688.959961,1645,2642.100098,38.4835014,67.1409988,NA,NA,NA,NA,NA,NA,NA,NA,NA,NA,NA,NA,NA,NA,NA,NA,NA,NA,NA,NA,NA,NA,NA,NA,NA,NA,NA,NA,NA,NA,NA,NA,NA,NA,NA,NA,NA,NA,NA,NA,NA,NA,NA,NA,NA,NA,NA,NA,NA,NA,NA,NA,NA,NA,NA,NA,NA,NA,NA,NA,NA,NA
10,"UTDEQ15",38.5896988,-109.4300003,1932,164698,"MB-SS-1201","MB-SS-1201","UNNAMED","6/27/2017","E2A3E81E-64ED-41B5-85FC-D398AE578199",NA,NA,"UT",NA,NA,NA,NA,NA,NA,NA,NA,NA,NA,NA,NA,NA,321,304.1329956,97.7330017,-83,52.3400002,105,396.5329895,56.4000015,7,277.6659851,1990.140015,1596,1921.729981,38.5896988,12.5986004,NA,NA,NA,NA,NA,NA,NA,NA,NA,NA,NA,NA,NA,NA,NA,NA,NA,NA,NA,NA,NA,NA,NA,NA,NA,NA,NA,NA,NA,NA,NA,NA,NA,NA,NA,NA,NA,NA,NA,NA,NA,NA,NA,NA,NA,NA,NA,NA,NA,NA,NA,NA,NA,NA,NA,NA,NA,NA,NA,NA,NA,NA
10,"UTDEQ15",38.6365013,-109.3720016,1932,164699,"MB-SS-1209","MB-SS-1209","CASTLE CREEK","9/25/2017","84A24124-566A-4209-A2EC-CECC1A4774A0",NA,NA,"UT",NA,NA,NA,NA,NA,NA,NA,NA,NA,NA,NA,NA,NA,333,249.8540039,59.7900009,-104.4189987,52,113,685.5640259,80.651001,8.1999998,269.2000122,3267.949951,1513,2399.959961,38.6365013,54.1831017,NA,NA,NA,NA,NA,NA,NA,NA,NA,NA,NA,NA,NA,NA,NA,NA,NA,NA,NA,NA,NA,NA,NA,NA,NA,NA,NA,NA,NA,NA,NA,NA,NA,NA,NA,NA,NA,NA,NA,NA,NA,NA,NA,NA,NA,NA,NA,NA,NA,NA,NA,NA,NA,NA,NA,NA,NA,NA,NA,NA,NA,NA
10,"UTDEQ15",38.7176018,-109.0849991,1932,164700,"MB-SS-13069","MB-SS-13069","BEAVER CREEK","7/19/2017","4558FFFB-C8A1-44FD-A05B-D7ACE5AD5914",NA,NA,"UT",NA,NA,NA,NA,NA,NA,NA,NA,NA,NA,NA,NA,NA,326,278.4649963,77.5270004,-100.1419983,51.8660011,109,567.8129883,70.3270035,7.73,269.8840027,3025.449951,1403,2323.77002,38.7176018,134.0500031,NA,NA,NA,NA,NA,NA,NA,NA,NA,NA,NA,NA,NA,NA,NA,NA,NA,NA,NA,NA,NA,NA,NA,NA,NA,NA,NA,NA,NA,NA,NA,NA,NA,NA,NA,NA,NA,NA,NA,NA,NA,NA,NA,NA,NA,NA,NA,NA,NA,NA,NA,NA,NA,NA,NA,NA,NA,NA,NA,NA,NA,NA
10,"UTDEQ15",39.2633018,-109.5080032,1932,164701,"MB-SS-13517","MB-SS-13517","DIAMOND CANYON","7/27/2017","488C50BC-586C-45E1-B6B8-A9827A1A5363",NA,NA,"UT",NA,NA,NA,NA,NA,NA,NA,NA,NA,NA,NA,NA,NA,287,275.3999939,69.8499985,-101.25,52.6930008,77,418.3999939,44.0960007,6.6659999,279,3464.929932,2025.300049,2332.899902,39.2633018,15.1001997,NA,NA,NA,NA,NA,NA,NA,NA,NA,NA,NA,NA,NA,NA,NA,NA,NA,NA,NA,NA,NA,NA,NA,NA,NA,NA,NA,NA,NA,NA,NA,NA,NA,NA,NA,NA,NA,NA,NA,NA,NA,NA,NA,NA,NA,NA,NA,NA,NA,NA,NA,NA,NA,NA,NA,NA,NA,NA,NA,NA,NA,NA
10,"UTDEQ15",37.9863014,-109.6039963,1932,164702,"MT-LS-10290","MT-LS-10290","COTTONWOOD CREEK","6/21/2017","261CD976-199C-4EBB-97AF-16F1B50B3C5D",NA,NA,"UT",NA,NA,NA,NA,NA,NA,NA,NA,NA,NA,NA,NA,NA,303,277.8840027,78.7939987,-86.2389984,52.5740013,95,464.8900146,56.1910019,8.04,271.019989,3101.179932,1739.599976,2276.389893,37.9863014,267.0239868,NA,NA,NA,NA,NA,NA,NA,NA,NA,NA,NA,NA,NA,NA,NA,NA,NA,NA,NA,NA,NA,NA,NA,NA,NA,NA,NA,NA,NA,NA,NA,NA,NA,NA,NA,NA,NA,NA,NA,NA,NA,NA,NA,NA,NA,NA,NA,NA,NA,NA,NA,NA,NA,NA,NA,NA,NA,NA,NA,NA,NA,NA
10,"UTDEQ15",37.7318993,-109.677002,1932,164703,"MT-LS-11237","MT-LS-11237","COTTONWOOD CREEK","7/5/2017","DD6B6AE5-E3E6-44AD-B9F0-7AA35DE2CAF4",NA,NA,"UT",NA,NA,NA,NA,NA,NA,NA,NA,NA,NA,NA,NA,NA,316,289.5209961,83.5370026,-90.6050034,52.1010017,100,399.9240112,51.5,7.21,276.2099915,3233.659912,1828.400024,2255.810059,37.7318993,96.9268036,NA,NA,NA,NA,NA,NA,NA,NA,NA,NA,NA,NA,NA,NA,NA,NA,NA,NA,NA,NA,NA,NA,NA,NA,NA,NA,NA,NA,NA,NA,NA,NA,NA,NA,NA,NA,NA,NA,NA,NA,NA,NA,NA,NA,NA,NA,NA,NA,NA,NA,NA,NA,NA,NA,NA,NA,NA,NA,NA,NA,NA,NA
10,"UTDEQ15",37.7318993,-109.677002,1932,164704,"MT-LS-11237","MT-LS-11237","COTTONWOOD CREEK","7/25/2017","FEC8303F-9604-46F8-BBC0-DDD151D5B597",NA,NA,"UT",NA,NA,NA,NA,NA,NA,NA,NA,NA,NA,NA,NA,NA,316,289.5209961,83.5370026,-90.6050034,52.1010017,100,399.9240112,51.5,7.21,276.2099915,3233.659912,1828.400024,2255.810059,37.7318993,96.9268036,NA,NA,NA,NA,NA,NA,NA,NA,NA,NA,NA,NA,NA,NA,NA,NA,NA,NA,NA,NA,NA,NA,NA,NA,NA,NA,NA,NA,NA,NA,NA,NA,NA,NA,NA,NA,NA,NA,NA,NA,NA,NA,NA,NA,NA,NA,NA,NA,NA,NA,NA,NA,NA,NA,NA,NA,NA,NA,NA,NA,NA,NA
10,"UTDEQ15",37.7220001,-109.262001,1932,164705,"MT-LS-16946","MT-LS-16946","MONTEZUMA CREEK","9/7/2017","F7E7B3EB-5071-4341-BF88-6F9AD0537F5A",NA,NA,"UT",NA,NA,NA,NA,NA,NA,NA,NA,NA,NA,NA,NA,NA,315,285.5280151,77.1320038,-100.322998,53.1759987,94,440.6199951,54.0940018,8.1879997,267.7349854,2780.340088,1658.099976,2187.26001,37.7220001,550.3740234,NA,NA,NA,NA,NA,NA,NA,NA,NA,NA,NA,NA,NA,NA,NA,NA,NA,NA,NA,NA,NA,NA,NA,NA,NA,NA,NA,NA,NA,NA,NA,NA,NA,NA,NA,NA,NA,NA,NA,NA,NA,NA,NA,NA,NA,NA,NA,NA,NA,NA,NA,NA,NA,NA,NA,NA,NA,NA,NA,NA,NA,NA
10,"UTDEQ15",37.9584007,-109.625,1932,164706,"MT-LS-17202","MT-LS-17202","NORTH COTTONWOOD CREEK","9/13/2017","0F819688-8E4D-48D5-B522-6C75AFC0C1E9",NA,NA,"UT",NA,NA,NA,NA,NA,NA,NA,NA,NA,NA,NA,NA,NA,311,276.04599,77.7659988,-86,52.5019989,94,471.7909851,56.7809982,8.1190004,271.1659851,3204.790039,1794.699951,2301.48999,37.9584007,231.8730011,NA,NA,NA,NA,NA,NA,NA,NA,NA,NA,NA,NA,NA,NA,NA,NA,NA,NA,NA,NA,NA,NA,NA,NA,NA,NA,NA,NA,NA,NA,NA,NA,NA,NA,NA,NA,NA,NA,NA,NA,NA,NA,NA,NA,NA,NA,NA,NA,NA,NA,NA,NA,NA,NA,NA,NA,NA,NA,NA,NA,NA,NA
10,"UTDEQ15",37.8706017,-109.3619995,1932,164707,"MT-SS-10098","MT-SS-10098",NA,"6/20/2017","21DD7E39-C5B5-43E5-A2B2-BC1BBDA667D7",NA,NA,"UT",NA,NA,NA,NA,NA,NA,NA,NA,NA,NA,NA,NA,NA,283,253.529007,61.2350006,-99.4700012,53,75,596.6469727,70.3529968,9,266.5,4053.360107,2176,2505.149902,37.8706017,16.7427006,NA,NA,NA,NA,NA,NA,NA,NA,NA,NA,NA,NA,NA,NA,NA,NA,NA,NA,NA,NA,NA,NA,NA,NA,NA,NA,NA,NA,NA,NA,NA,NA,NA,NA,NA,NA,NA,NA,NA,NA,NA,NA,NA,NA,NA,NA,NA,NA,NA,NA,NA,NA,NA,NA,NA,NA,NA,NA,NA,NA,NA,NA
10,"UTDEQ15",37.7793999,-109.2809982,1932,164708,"MT-SS-13874","MT-SS-13874","BUTLER WASH","7/24/2017","39DFF320-179A-43C7-AEC1-677F4EC871F7",NA,NA,"UT",NA,NA,NA,NA,NA,NA,NA,NA,NA,NA,NA,NA,NA,312,279.1229858,76.1350021,-95.6289978,53.0470009,94,469.4930115,55.3829994,7.8569999,271,3351.370117,1745.800049,2263.620117,37.7793999,67.0746994,NA,NA,NA,NA,NA,NA,NA,NA,NA,NA,NA,NA,NA,NA,NA,NA,NA,NA,NA,NA,NA,NA,NA,NA,NA,NA,NA,NA,NA,NA,NA,NA,NA,NA,NA,NA,NA,NA,NA,NA,NA,NA,NA,NA,NA,NA,NA,NA,NA,NA,NA,NA,NA,NA,NA,NA,NA,NA,NA,NA,NA,NA
10,"UTDEQ15",37.7793999,-109.2809982,1932,164709,"MT-SS-13874","MT-SS-13874","BUTLER WASH","6/29/2017","D1CA596C-B6EF-435B-BE9B-64DB6F043A9F",NA,NA,"UT",NA,NA,NA,NA,NA,NA,NA,NA,NA,NA,NA,NA,NA,312,279.1229858,76.1350021,-95.6289978,53.0470009,94,469.4930115,55.3829994,7.8569999,271,3351.370117,1745.800049,2263.620117,37.7793999,67.0746994,NA,NA,NA,NA,NA,NA,NA,NA,NA,NA,NA,NA,NA,NA,NA,NA,NA,NA,NA,NA,NA,NA,NA,NA,NA,NA,NA,NA,NA,NA,NA,NA,NA,NA,NA,NA,NA,NA,NA,NA,NA,NA,NA,NA,NA,NA,NA,NA,NA,NA,NA,NA,NA,NA,NA,NA,NA,NA,NA,NA,NA,NA
10,"UTDEQ15",37.8639984,-109.3330002,1932,164710,"MT-SS-14194","MT-SS-14194","MONTEZUMA CREEK","8/10/2017","EBCD357B-D5B7-4750-B63D-3C1820EBC241",NA,NA,"UT",NA,NA,NA,NA,NA,NA,NA,NA,NA,NA,NA,NA,NA,288,262.2420044,65.8420029,-99.0419998,53,78,553.3280029,69.1220016,9,266.8330078,3988.159912,2094.100098,2477.419922,37.8639984,58.8054008,NA,NA,NA,NA,NA,NA,NA,NA,NA,NA,NA,NA,NA,NA,NA,NA,NA,NA,NA,NA,NA,NA,NA,NA,NA,NA,NA,NA,NA,NA,NA,NA,NA,NA,NA,NA,NA,NA,NA,NA,NA,NA,NA,NA,NA,NA,NA,NA,NA,NA,NA,NA,NA,NA,NA,NA,NA,NA,NA,NA,NA,NA
10,"UTDEQ15",39.2518997,-109.473999,1932,164711,"XE-LS-5023","XE-LS-5023","XE-LS-5023:","9/22/2017","7F4F2817-684A-4B85-98BC-BD897C8CCC62",NA,NA,"UT",NA,NA,NA,NA,NA,NA,NA,NA,NA,NA,NA,NA,NA,302,277.0580139,70.8430023,-102.7249985,52.5060005,86,410.4700012,43.2039986,6.75,277.875,3020.389893,1908,2298.979981,39.2518997,41.1204987,NA,NA,NA,NA,NA,NA,NA,NA,NA,NA,NA,NA,NA,NA,NA,NA,NA,NA,NA,NA,NA,NA,NA,NA,NA,NA,NA,NA,NA,NA,NA,NA,NA,NA,NA,NA,NA,NA,NA,NA,NA,NA,NA,NA,NA,NA,NA,NA,NA,NA,NA,NA,NA,NA,NA,NA,NA,NA,NA,NA,NA,NA
11,"AREMP_MMI_and_OE",41.9804001,-123.5709991,1934,164818,"2017CADUN1002","CADUN-1002","CADUN-1002","7/13/2017",NA,NA,NA,"CA",NA,NA,NA,NA,NA,NA,NA,NA,NA,NA,NA,NA,NA,NA,NA,NA,NA,NA,NA,NA,NA,NA,NA,NA,NA,NA,NA,NA,NA,NA,NA,NA,1339.709961,969.9000244,0.17601,11,66,25.4500008,10,9.25,11,1.02542,1731,NA,NA,NA,NA,NA,NA,NA,NA,NA,NA,NA,NA,NA,NA,NA,NA,NA,NA,NA,NA,NA,NA,NA,NA,NA,NA,NA,NA,NA,NA,NA,NA,NA,NA,NA,NA,NA,NA,NA,NA,NA,NA,NA,NA,NA,NA,NA
11,"AREMP_MMI_and_OE",41.9589005,-123.5630035,1934,164819,"2017CADUN1008","CADUN-1008","CADUN-1008","7/17/2017",NA,NA,NA,"CA",NA,NA,NA,NA,NA,NA,NA,NA,NA,NA,NA,NA,NA,NA,NA,NA,NA,NA,NA,NA,NA,NA,NA,NA,NA,NA,NA,NA,NA,NA,NA,NA,1373.780029,877.9000244,0.16821,11.0740004,67,24.7749996,9,8.3330002,11,6.22963,1781,NA,NA,NA,NA,NA,NA,NA,NA,NA,NA,NA,NA,NA,NA,NA,NA,NA,NA,NA,NA,NA,NA,NA,NA,NA,NA,NA,NA,NA,NA,NA,NA,NA,NA,NA,NA,NA,NA,NA,NA,NA,NA,NA,NA,NA,NA,NA
11,"AREMP_MMI_and_OE",41.9617996,-123.564003,1934,164820,"2017CADUN1009","CADUN-1009","CADUN-1009","7/17/2017",NA,NA,NA,"CA",NA,NA,NA,NA,NA,NA,NA,NA,NA,NA,NA,NA,NA,NA,NA,NA,NA,NA,NA,NA,NA,NA,NA,NA,NA,NA,NA,NA,NA,NA,NA,NA,1398.189941,839.2999878,0.192,10.3330002,66.8330002,25.2000008,10,8.3330002,11,1.41746,1711.5,NA,NA,NA,NA,NA,NA,NA,NA,NA,NA,NA,NA,NA,NA,NA,NA,NA,NA,NA,NA,NA,NA,NA,NA,NA,NA,NA,NA,NA,NA,NA,NA,NA,NA,NA,NA,NA,NA,NA,NA,NA,NA,NA,NA,NA,NA,NA
11,"AREMP_MMI_and_OE",41.964901,-123.572998,1934,164821,"2017CADUN1011","CADUN-1011","CADUN-1011","7/14/2017",NA,NA,NA,"CA",NA,NA,NA,NA,NA,NA,NA,NA,NA,NA,NA,NA,NA,NA,NA,NA,NA,NA,NA,NA,NA,NA,NA,NA,NA,NA,NA,NA,NA,NA,NA,NA,1317.680054,729.4000244,0.1729,10.8920002,66.8030014,25.1312008,10,8.6780005,10,13.1885996,1860.199951,NA,NA,NA,NA,NA,NA,NA,NA,NA,NA,NA,NA,NA,NA,NA,NA,NA,NA,NA,NA,NA,NA,NA,NA,NA,NA,NA,NA,NA,NA,NA,NA,NA,NA,NA,NA,NA,NA,NA,NA,NA,NA,NA,NA,NA,NA,NA
11,"AREMP_MMI_and_OE",41.9852982,-123.5650024,1934,164822,"2017CADUN1015","CADUN-1015","CADUN-1015","7/15/2017",NA,NA,NA,"CA",NA,NA,NA,NA,NA,NA,NA,NA,NA,NA,NA,NA,NA,NA,NA,NA,NA,NA,NA,NA,NA,NA,NA,NA,NA,NA,NA,NA,NA,NA,NA,NA,1497.670044,1154.400024,0.18498,10.3999996,66,23.7999992,9,8.1999998,11,1.35611,1764,NA,NA,NA,NA,NA,NA,NA,NA,NA,NA,NA,NA,NA,NA,NA,NA,NA,NA,NA,NA,NA,NA,NA,NA,NA,NA,NA,NA,NA,NA,NA,NA,NA,NA,NA,NA,NA,NA,NA,NA,NA,NA,NA,NA,NA,NA,NA
11,"AREMP_MMI_and_OE",41.9774017,-123.5849991,1934,164823,"2017CADUN1019","CADUN-1019","CADUN-1019","7/16/2017",NA,NA,NA,"CA",NA,NA,NA,NA,NA,NA,NA,NA,NA,NA,NA,NA,NA,NA,NA,NA,NA,NA,NA,NA,NA,NA,NA,NA,NA,NA,NA,NA,NA,NA,NA,NA,1292.579956,643.5999756,0.14676,11.9639997,66.8809967,25.6301003,11,9.0170002,10,42.7169991,1930.599976,NA,NA,NA,NA,NA,NA,NA,NA,NA,NA,NA,NA,NA,NA,NA,NA,NA,NA,NA,NA,NA,NA,NA,NA,NA,NA,NA,NA,NA,NA,NA,NA,NA,NA,NA,NA,NA,NA,NA,NA,NA,NA,NA,NA,NA,NA,NA
11,"AREMP_MMI_and_OE",40.5079994,-123.0810013,1934,164824,"2017CAGUR1002","CAGUR-1002","CAGUR-1002","7/13/2017",NA,NA,NA,"CA",NA,NA,NA,NA,NA,NA,NA,NA,NA,NA,NA,NA,NA,NA,NA,NA,NA,NA,NA,NA,NA,NA,NA,NA,NA,NA,NA,NA,NA,NA,NA,NA,1234.160034,795.5,0.16427,3.618,59.1590004,28.9792995,11,10.3319998,4,217.2709961,1942,NA,NA,NA,NA,NA,NA,NA,NA,NA,NA,NA,NA,NA,NA,NA,NA,NA,NA,NA,NA,NA,NA,NA,NA,NA,NA,NA,NA,NA,NA,NA,NA,NA,NA,NA,NA,NA,NA,NA,NA,NA,NA,NA,NA,NA,NA,NA
11,"AREMP_MMI_and_OE",40.4812012,-123.0830002,1934,164825,"2017CAGUR1003","CAGUR-1003","CAGUR-1003","7/17/2017",NA,NA,NA,"CA",NA,NA,NA,NA,NA,NA,NA,NA,NA,NA,NA,NA,NA,NA,NA,NA,NA,NA,NA,NA,NA,NA,NA,NA,NA,NA,NA,NA,NA,NA,NA,NA,1062.640015,894.5,0.16741,3.5,61,31.1000004,11,10.6660004,3,1.15553,1317.900024,NA,NA,NA,NA,NA,NA,NA,NA,NA,NA,NA,NA,NA,NA,NA,NA,NA,NA,NA,NA,NA,NA,NA,NA,NA,NA,NA,NA,NA,NA,NA,NA,NA,NA,NA,NA,NA,NA,NA,NA,NA,NA,NA,NA,NA,NA,NA
11,"AREMP_MMI_and_OE",40.4981995,-123.1009979,1934,164826,"2017CAGUR1005","CAGUR-1005","CAGUR-1005","7/15/2017",NA,NA,NA,"CA",NA,NA,NA,NA,NA,NA,NA,NA,NA,NA,NA,NA,NA,NA,NA,NA,NA,NA,NA,NA,NA,NA,NA,NA,NA,NA,NA,NA,NA,NA,NA,NA,1014.840027,854.0999756,0.16159,3.9200001,61.7599983,30.7250004,11,10.2799997,4,6.3201699,1317.599976,NA,NA,NA,NA,NA,NA,NA,NA,NA,NA,NA,NA,NA,NA,NA,NA,NA,NA,NA,NA,NA,NA,NA,NA,NA,NA,NA,NA,NA,NA,NA,NA,NA,NA,NA,NA,NA,NA,NA,NA,NA,NA,NA,NA,NA,NA,NA
11,"AREMP_MMI_and_OE",40.5270996,-123.0879974,1934,164827,"2017CAGUR1006","CAGUR-1006","CAGUR-1006","7/14/2017",NA,NA,NA,"CA",NA,NA,NA,NA,NA,NA,NA,NA,NA,NA,NA,NA,NA,NA,NA,NA,NA,NA,NA,NA,NA,NA,NA,NA,NA,NA,NA,NA,NA,NA,NA,NA,1224.98999,779.0999756,0.16404,3.6329999,59.3170013,29.1018009,11,10.3579998,4,226.0540009,1942,NA,NA,NA,NA,NA,NA,NA,NA,NA,NA,NA,NA,NA,NA,NA,NA,NA,NA,NA,NA,NA,NA,NA,NA,NA,NA,NA,NA,NA,NA,NA,NA,NA,NA,NA,NA,NA,NA,NA,NA,NA,NA,NA,NA,NA,NA,NA
11,"AREMP_MMI_and_OE",40.5074997,-123.0810013,1934,164828,"2017CAGUR1007","CAGUR-1007","CAGUR-1007","7/15/2017",NA,NA,NA,"CA",NA,NA,NA,NA,NA,NA,NA,NA,NA,NA,NA,NA,NA,NA,NA,NA,NA,NA,NA,NA,NA,NA,NA,NA,NA,NA,NA,NA,NA,NA,NA,NA,1234.26001,796.7999878,0.16427,3.618,59.1590004,28.9792995,11,10.3319998,4,217.2109985,1942,NA,NA,NA,NA,NA,NA,NA,NA,NA,NA,NA,NA,NA,NA,NA,NA,NA,NA,NA,NA,NA,NA,NA,NA,NA,NA,NA,NA,NA,NA,NA,NA,NA,NA,NA,NA,NA,NA,NA,NA,NA,NA,NA,NA,NA,NA,NA
11,"AREMP_MMI_and_OE",40.8334007,-122.0230026,1934,164829,"2017CAPTM1004","CAPTM-1004","CAPTM-1004","6/19/2017",NA,NA,NA,"CA",NA,NA,NA,NA,NA,NA,NA,NA,NA,NA,NA,NA,NA,NA,NA,NA,NA,NA,NA,NA,NA,NA,NA,NA,NA,NA,NA,NA,NA,NA,NA,NA,604.2399902,336.8999939,0.17181,10.1000004,57,35.0666008,15,15,9,2.25915,816,NA,NA,NA,NA,NA,NA,NA,NA,NA,NA,NA,NA,NA,NA,NA,NA,NA,NA,NA,NA,NA,NA,NA,NA,NA,NA,NA,NA,NA,NA,NA,NA,NA,NA,NA,NA,NA,NA,NA,NA,NA,NA,NA,NA,NA,NA,NA
11,"AREMP_MMI_and_OE",40.8591003,-122.0210037,1934,164830,"2017CAPTM1005","CAPTM-1005","CAPTM-1005","6/15/2017",NA,NA,NA,"CA",NA,NA,NA,NA,NA,NA,NA,NA,NA,NA,NA,NA,NA,NA,NA,NA,NA,NA,NA,NA,NA,NA,NA,NA,NA,NA,NA,NA,NA,NA,NA,NA,626.7000122,549.2999878,0.19427,10,57,35,15,15,10,0.409673,749.5,NA,NA,NA,NA,NA,NA,NA,NA,NA,NA,NA,NA,NA,NA,NA,NA,NA,NA,NA,NA,NA,NA,NA,NA,NA,NA,NA,NA,NA,NA,NA,NA,NA,NA,NA,NA,NA,NA,NA,NA,NA,NA,NA,NA,NA,NA,NA
11,"AREMP_MMI_and_OE",40.8530998,-122.0339966,1934,164831,"2017CAPTM1010","CAPTM-1010","CAPTM-1010","6/16/2017",NA,NA,NA,"CA",NA,NA,NA,NA,NA,NA,NA,NA,NA,NA,NA,NA,NA,NA,NA,NA,NA,NA,NA,NA,NA,NA,NA,NA,NA,NA,NA,NA,NA,NA,NA,NA,460.9200134,402.5,0.14399,10,57,35.2000008,15,15,10,0.216551,519.4000244,NA,NA,NA,NA,NA,NA,NA,NA,NA,NA,NA,NA,NA,NA,NA,NA,NA,NA,NA,NA,NA,NA,NA,NA,NA,NA,NA,NA,NA,NA,NA,NA,NA,NA,NA,NA,NA,NA,NA,NA,NA,NA,NA,NA,NA,NA,NA
11,"AREMP_MMI_and_OE",40.6170006,-122.0110016,1934,164832,"2017CAPTM1011","CAPTM-1011","CAPTM-1001","6/20/2017",NA,NA,NA,"CA",NA,NA,NA,NA,NA,NA,NA,NA,NA,NA,NA,NA,NA,NA,NA,NA,NA,NA,NA,NA,NA,NA,NA,NA,NA,NA,NA,NA,NA,NA,NA,NA,394.2000122,370.3999939,0.206,4,54,35.5999985,16,16,4,0.0824706,413.5,NA,NA,NA,NA,NA,NA,NA,NA,NA,NA,NA,NA,NA,NA,NA,NA,NA,NA,NA,NA,NA,NA,NA,NA,NA,NA,NA,NA,NA,NA,NA,NA,NA,NA,NA,NA,NA,NA,NA,NA,NA,NA,NA,NA,NA,NA,NA
11,"AREMP_MMI_and_OE",40.8460999,-122.0339966,1934,164833,"2017CAPTM1027","CAPTM-1027","CAPT-1027","6/17/2017",NA,NA,NA,"CA",NA,NA,NA,NA,NA,NA,NA,NA,NA,NA,NA,NA,NA,NA,NA,NA,NA,NA,NA,NA,NA,NA,NA,NA,NA,NA,NA,NA,NA,NA,NA,NA,672.0999756,394.2000122,0.1753,11.9650002,58.0079994,33.9303017,15,14.3039999,10,28.2786999,1065.900024,NA,NA,NA,NA,NA,NA,NA,NA,NA,NA,NA,NA,NA,NA,NA,NA,NA,NA,NA,NA,NA,NA,NA,NA,NA,NA,NA,NA,NA,NA,NA,NA,NA,NA,NA,NA,NA,NA,NA,NA,NA,NA,NA,NA,NA,NA,NA
11,"AREMP_MMI_and_OE",41.8535995,-123.5049973,1934,164834,"2017CASFI1004","CASFI-1004","CASFI-1004","7/2/2017",NA,NA,NA,"CA",NA,NA,NA,NA,NA,NA,NA,NA,NA,NA,NA,NA,NA,NA,NA,NA,NA,NA,NA,NA,NA,NA,NA,NA,NA,NA,NA,NA,NA,NA,NA,NA,1044.660034,814.4000244,0.1411,8.75,68,30.25,11,11,9,0.921023,1441.400024,NA,NA,NA,NA,NA,NA,NA,NA,NA,NA,NA,NA,NA,NA,NA,NA,NA,NA,NA,NA,NA,NA,NA,NA,NA,NA,NA,NA,NA,NA,NA,NA,NA,NA,NA,NA,NA,NA,NA,NA,NA,NA,NA,NA,NA,NA,NA
11,"AREMP_MMI_and_OE",41.8588982,-123.5,1934,164835,"2017CASFI1016","CASFI-1016","CASFI-1016","7/3/2017",NA,NA,NA,"CA",NA,NA,NA,NA,NA,NA,NA,NA,NA,NA,NA,NA,NA,NA,NA,NA,NA,NA,NA,NA,NA,NA,NA,NA,NA,NA,NA,NA,NA,NA,NA,NA,1226.920044,680.7000122,0.13592,8.8439999,67.8330002,28.7518005,11,10.4770002,8,22.3605995,1803.300049,NA,NA,NA,NA,NA,NA,NA,NA,NA,NA,NA,NA,NA,NA,NA,NA,NA,NA,NA,NA,NA,NA,NA,NA,NA,NA,NA,NA,NA,NA,NA,NA,NA,NA,NA,NA,NA,NA,NA,NA,NA,NA,NA,NA,NA,NA,NA
11,"AREMP_MMI_and_OE",41.8750992,-123.4660034,1934,164836,"2017CASFI1021","CASFI-1021","CASFI-1021","6/19/2017",NA,NA,NA,"CA",NA,NA,NA,NA,NA,NA,NA,NA,NA,NA,NA,NA,NA,NA,NA,NA,NA,NA,NA,NA,NA,NA,NA,NA,NA,NA,NA,NA,NA,NA,NA,NA,1223.150024,529.4000244,0.13111,10.3620005,68.0500031,28.5911999,11,10.2670002,7,113.7799988,2200.399902,NA,NA,NA,NA,NA,NA,NA,NA,NA,NA,NA,NA,NA,NA,NA,NA,NA,NA,NA,NA,NA,NA,NA,NA,NA,NA,NA,NA,NA,NA,NA,NA,NA,NA,NA,NA,NA,NA,NA,NA,NA,NA,NA,NA,NA,NA,NA
11,"AREMP_MMI_and_OE",41.8354988,-123.4919968,1934,164837,"2017CASFI1029","CASFI-1029","CASFI-1029","6/30/2017",NA,NA,NA,"CA",NA,NA,NA,NA,NA,NA,NA,NA,NA,NA,NA,NA,NA,NA,NA,NA,NA,NA,NA,NA,NA,NA,NA,NA,NA,NA,NA,NA,NA,NA,NA,NA,1364.900024,979,0.12476,9.1610003,67.8700027,28.1333008,11,10.3219995,9,7.5973501,1735.300049,NA,NA,NA,NA,NA,NA,NA,NA,NA,NA,NA,NA,NA,NA,NA,NA,NA,NA,NA,NA,NA,NA,NA,NA,NA,NA,NA,NA,NA,NA,NA,NA,NA,NA,NA,NA,NA,NA,NA,NA,NA,NA,NA,NA,NA,NA,NA
